route_id,stop_id,stop_name,next_stop,derived_next_stop,derived_stop_name
104,1,REDHILLS,AYURVEDHA ASHARAMAM,104-AYURVEDHA ASHARAMAM,104-REDHILLS
104,2,AYURVEDHA ASHARAMAM,KAVANGARAI,104-KAVANGARAI,104-AYURVEDHA ASHARAMAM
104,3,KAVANGARAI,SCREW FACTORY,104-SCREW FACTORY,104-KAVANGARAI
104,4,SCREW FACTORY,SURAPEDU,104-SURAPEDU,104-SCREW FACTORY
104,5,SURAPEDU,KALLIKUPPAM,104-KALLIKUPPAM,104-SURAPEDU
104,6,KALLIKUPPAM,PUDUR,104-PUDUR,104-KALLIKUPPAM
104,7,PUDUR,AMBATTUR O.T.,104-AMBATTUR O.T.,104-PUDUR
104,8,AMBATTUR O.T.,DUNLOP,DUNLOP,104-AMBATTUR O.T.
104,9,DUNLOP,AMBATTUR I.E.,104-AMBATTUR I.E.,DUNLOP
104,10,AMBATTUR I.E.,NALAMBUR SERVICE RD,104-NALAMBUR SERVICE RD,104-AMBATTUR I.E.
104,11,NALAMBUR SERVICE RD,MADURAVOYAL JN,104-MADURAVOYAL JN,104-NALAMBUR SERVICE RD
104,12,MADURAVOYAL JN,TVS MCC MOTORS,104-TVS MCC MOTORS,104-MADURAVOYAL JN
104,13,TVS MCC MOTORS,TOLL PLAZA,104-TOLL PLAZA,104-TVS MCC MOTORS
104,14,TOLL PLAZA,PORUR JN,104-PORUR JN,104-TOLL PLAZA
104,15,PORUR JN,MANGADU RD JN,104-MANGADU RD JN,104-PORUR JN
104,16,MANGADU RD JN,KOVOOR RD JN,104-KOVOOR RD JN,104-MANGADU RD JN
104,17,KOVOOR RD JN,PAMMAL ADAYAR BRIDGE,104-PAMMAL ADAYAR BRIDGE,104-KOVOOR RD JN
104,18,PAMMAL ADAYAR BRIDGE,THENDRAL NAGAR,104-THENDRAL NAGAR,104-PAMMAL ADAYAR BRIDGE
104,19,THENDRAL NAGAR,THIRUNEERMALAI RD JN.,104-THIRUNEERMALAI RD JN.,104-THENDRAL NAGAR
104,20,THIRUNEERMALAI RD JN.,PETROL BUNK,104-PETROL BUNK,104-THIRUNEERMALAI RD JN.
104,21,PETROL BUNK,MUDICHUR RD JN.,104-MUDICHUR RD JN.,104-PETROL BUNK
104,22,MUDICHUR RD JN.,IRUMBULIYUR,104-IRUMBULIYUR,104-MUDICHUR RD JN.
104,23,IRUMBULIYUR,TAMBARAM,104-TAMBARAM,104-IRUMBULIYUR
104,24,TAMBARAM,104,104,104-TAMBARAM
104A,1,AVADI,POLYTECHNIC,104A-POLYTECHNIC,104A-AVADI
104A,2,POLYTECHNIC,THIRUMULLAIVOYAL,104A-THIRUMULLAIVOYAL,104A-POLYTECHNIC
104A,3,THIRUMULLAIVOYAL,AMBATTUR O.T.,104A-AMBATTUR O.T.,104A-THIRUMULLAIVOYAL
104A,4,AMBATTUR O.T.,DUNLOP,DUNLOP,104A-AMBATTUR O.T.
104A,5,DUNLOP,AMBATTUR I.E.,104A-AMBATTUR I.E.,DUNLOP
104A,6,AMBATTUR I.E.,NOLAMBUR SERVICE RD,104A-NOLAMBUR SERVICE RD,104A-AMBATTUR I.E.
104A,7,NOLAMBUR SERVICE RD,MADURAVOYAL JN,104A-MADURAVOYAL JN,104A-NOLAMBUR SERVICE RD
104A,8,MADURAVOYAL JN,TVS MCC MOTORS,104A-TVS MCC MOTORS,104A-MADURAVOYAL JN
104A,9,TVS MCC MOTORS,TOLL PLAZA,104A-TOLL PLAZA,104A-TVS MCC MOTORS
104A,10,TOLL PLAZA,PORUR JN,104A-PORUR JN,104A-TOLL PLAZA
104A,11,PORUR JN,MANGADU RD JN,104A-MANGADU RD JN,104A-PORUR JN
104A,12,MANGADU RD JN,KOVOOR RD JN,104A-KOVOOR RD JN,104A-MANGADU RD JN
104A,13,KOVOOR RD JN,PAMMAL ADAYAR BRIDGE,104A-PAMMAL ADAYAR BRIDGE,104A-KOVOOR RD JN
104A,14,PAMMAL ADAYAR BRIDGE,THENDRAL NAGAR,104A-THENDRAL NAGAR,104A-PAMMAL ADAYAR BRIDGE
104A,15,THENDRAL NAGAR,THIRUNEERMALAI RD.JN.,104A-THIRUNEERMALAI RD.JN.,104A-THENDRAL NAGAR
104A,16,THIRUNEERMALAI RD.JN.,PETROL BUNK,104A-PETROL BUNK,104A-THIRUNEERMALAI RD.JN.
104A,17,PETROL BUNK,MUDICHUR RD.JN.,104A-MUDICHUR RD.JN.,104A-PETROL BUNK
104A,18,MUDICHUR RD.JN.,IRUMBULIYUR,104A-IRUMBULIYUR,104A-MUDICHUR RD.JN.
104A,19,IRUMBULIYUR,PERUNGALATHUR,104A-PERUNGALATHUR,104A-IRUMBULIYUR
104A,20,PERUNGALATHUR,VANDALUR GATE,104A-VANDALUR GATE,104A-PERUNGALATHUR
104A,21,VANDALUR GATE,VANDALUR ZOO,104A-VANDALUR ZOO,104A-VANDALUR GATE
104A,22,VANDALUR ZOO,KILAMBAKKAM B.S.,104A-KILAMBAKKAM B.S.,104A-VANDALUR ZOO
104A,23,KILAMBAKKAM B.S.,104A,104A,104A-KILAMBAKKAM B.S.
104K,1,REDHILLS,AYURVEDHA ASHARAMAM,104K-AYURVEDHA ASHARAMAM,104K-REDHILLS
104K,2,AYURVEDHA ASHARAMAM,KAVANGARAI,104K-KAVANGARAI,104K-AYURVEDHA ASHARAMAM
104K,3,KAVANGARAI,SCREW FACTORY,104K-SCREW FACTORY,104K-KAVANGARAI
104K,4,SCREW FACTORY,SURAPEDU,104K-SURAPEDU,104K-SCREW FACTORY
104K,5,SURAPEDU,KALLIKUPPAM,104K-KALLIKUPPAM,104K-SURAPEDU
104K,6,KALLIKUPPAM,PUDUR,104K-PUDUR,104K-KALLIKUPPAM
104K,7,PUDUR,AMBATTUR O.T.,104K-AMBATTUR O.T.,104K-PUDUR
104K,8,AMBATTUR O.T.,DUNLOP,DUNLOP,104K-AMBATTUR O.T.
104K,9,DUNLOP,AMBATTUR I.E.,104K-AMBATTUR I.E.,DUNLOP
104K,10,AMBATTUR I.E.,NALAMBUR SERVICE RD,104K-NALAMBUR SERVICE RD,104K-AMBATTUR I.E.
104K,11,NALAMBUR SERVICE RD,MADURAVOYAL JN,104K-MADURAVOYAL JN,104K-NALAMBUR SERVICE RD
104K,12,MADURAVOYAL JN,TVS MCC MOTORS,104K-TVS MCC MOTORS,104K-MADURAVOYAL JN
104K,13,TVS MCC MOTORS,TOLL PLAZA,104K-TOLL PLAZA,104K-TVS MCC MOTORS
104K,14,TOLL PLAZA,PORUR JN,104K-PORUR JN,104K-TOLL PLAZA
104K,15,PORUR JN,MANGADU RD JN,104K-MANGADU RD JN,104K-PORUR JN
104K,16,MANGADU RD JN,KOVOOR RD JN,104K-KOVOOR RD JN,104K-MANGADU RD JN
104K,17,KOVOOR RD JN,PAMMAL ADAYAR BRIDGE,104K-PAMMAL ADAYAR BRIDGE,104K-KOVOOR RD JN
104K,18,PAMMAL ADAYAR BRIDGE,THENDRAL NAGAR,104K-THENDRAL NAGAR,104K-PAMMAL ADAYAR BRIDGE
104K,19,THENDRAL NAGAR,THIRUNEERMALAI RD JN.,104K-THIRUNEERMALAI RD JN.,104K-THENDRAL NAGAR
104K,20,THIRUNEERMALAI RD JN.,PETROL BUNK,104K-PETROL BUNK,104K-THIRUNEERMALAI RD JN.
104K,21,PETROL BUNK,MUDICHUR RD JN.,104K-MUDICHUR RD JN.,104K-PETROL BUNK
104K,22,MUDICHUR RD JN.,PERUNGALATHUR,104K-PERUNGALATHUR,104K-MUDICHUR RD JN.
104K,23,PERUNGALATHUR,VANDALUR GATE,104K-VANDALUR GATE,104K-PERUNGALATHUR
104K,24,VANDALUR GATE,VANDALUR ZOO,104K-VANDALUR ZOO,104K-VANDALUR GATE
104K,25,VANDALUR ZOO,KILAMBAKKAM B.S.,104K-KILAMBAKKAM B.S.,104K-VANDALUR ZOO
104K,26,KILAMBAKKAM B.S.,104K,104K,104K-KILAMBAKKAM B.S.
120,1,BROADWAY,M.G.R.CENTRAL,120-M.G.R.CENTRAL,120-BROADWAY
120,2,M.G.R.CENTRAL,DHARMAPRAKASH/PETROL BUNK,120-DHARMAPRAKASH/PETROL BUNK,120-M.G.R.CENTRAL
120,3,DHARMAPRAKASH/PETROL BUNK,KELLEYS,120-KELLEYS,120-DHARMAPRAKASH/PETROL BUNK
120,4,KELLEYS,SAYANI/AYNAVARAM,120-SAYANI/AYNAVARAM,120-KELLEYS
120,5,SAYANI/AYNAVARAM,KAMABAR ARANGAM,120-KAMABAR ARANGAM,120-SAYANI/AYNAVARAM
120,6,KAMABAR ARANGAM,NATHAMUNI TALKIES,120-NATHAMUNI TALKIES,120-KAMABAR ARANGAM
120,7,NATHAMUNI TALKIES,LUCAS TVS,120-LUCAS TVS,120-NATHAMUNI TALKIES
120,8,LUCAS TVS,AMBATTUR I.E.,120-AMBATTUR I.E.,120-LUCAS TVS
120,9,AMBATTUR I.E.,DUNLOP,DUNLOP,120-AMBATTUR I.E.
120,10,DUNLOP,AMBATTUR O.T.,120-AMBATTUR O.T.,DUNLOP
120,11,AMBATTUR O.T.,THIRUMULLAIVOYAL,120-THIRUMULLAIVOYAL,120-AMBATTUR O.T.
120,12,THIRUMULLAIVOYAL,POLYTECHNIC,120-POLYTECHNIC,120-THIRUMULLAIVOYAL
120,13,POLYTECHNIC,AVADI,120-AVADI,120-POLYTECHNIC
120,14,AVADI,120,120,120-AVADI
120A,1,BROADWAY,M.G.R.CENTRAL,120A-M.G.R.CENTRAL,120A-BROADWAY
120A,2,M.G.R.CENTRAL,DHARMAPRAKASH/PETROL BUNK,120A-DHARMAPRAKASH/PETROL BUNK,120A-M.G.R.CENTRAL
120A,3,DHARMAPRAKASH/PETROL BUNK,KELLEYS,120A-KELLEYS,120A-DHARMAPRAKASH/PETROL BUNK
120A,4,KELLEYS,SAYANI/AYNAVARAM,120A-SAYANI/AYNAVARAM,120A-KELLEYS
120A,5,SAYANI/AYNAVARAM,KAMABAR ARANGAM,120A-KAMABAR ARANGAM,120A-SAYANI/AYNAVARAM
120A,6,KAMABAR ARANGAM,NATHAMUNI TALKIES,120A-NATHAMUNI TALKIES,120A-KAMABAR ARANGAM
120A,7,NATHAMUNI TALKIES,LUCAS TVS,120A-LUCAS TVS,120A-NATHAMUNI TALKIES
120A,8,LUCAS TVS,AMBATTUR I.E.,120A-AMBATTUR I.E.,120A-LUCAS TVS
120A,9,AMBATTUR I.E.,DUNLOP,DUNLOP,120A-AMBATTUR I.E.
120A,10,DUNLOP,AMBATTUR O.T.,120A-AMBATTUR O.T.,DUNLOP
120A,11,AMBATTUR O.T.,THIRUMULLAIVOYAL,120A-THIRUMULLAIVOYAL,120A-AMBATTUR O.T.
120A,12,THIRUMULLAIVOYAL,POLYTECHNIC,120A-POLYTECHNIC,120A-THIRUMULLAIVOYAL
120A,13,POLYTECHNIC,AVADI CIRCLE,120A-AVADI CIRCLE,120A-POLYTECHNIC
120A,14,AVADI CIRCLE,KOILPATHAGAI RD.JN.,120A-KOILPATHAGAI RD.JN.,120A-AVADI CIRCLE
120A,15,KOILPATHAGAI RD.JN.,H.V.F.MAIN GATE,120A-H.V.F.MAIN GATE,120A-KOILPATHAGAI RD.JN.
120A,16,H.V.F.MAIN GATE,AAFS CROSS ROAD,120A-AAFS CROSS ROAD,120A-H.V.F.MAIN GATE
120A,17,AAFS CROSS ROAD,VENGAL CROSS ROAD,120A-VENGAL CROSS ROAD,120A-AAFS CROSS ROAD
120A,18,VENGAL CROSS ROAD,VEERAPURAM,120A-VEERAPURAM,120A-VENGAL CROSS ROAD
120A,19,VEERAPURAM,ARAKKAMBAKKAM RD.JN.,120A-ARAKKAMBAKKAM RD.JN.,120A-VEERAPURAM
120A,20,ARAKKAMBAKKAM RD.JN.,ARAKKAMBAKKAM,120A-ARAKKAMBAKKAM,120A-ARAKKAMBAKKAM RD.JN.
120A,21,ARAKKAMBAKKAM,120A,120A,120A-ARAKKAMBAKKAM
120CT,1,BROADWAY,M.G.R.CENTRAL,120CT-M.G.R.CENTRAL,120CT-BROADWAY
120CT,2,M.G.R.CENTRAL,DHARMAPRAKASH/PETROL BUNK,120CT-DHARMAPRAKASH/PETROL BUNK,120CT-M.G.R.CENTRAL
120CT,3,DHARMAPRAKASH/PETROL BUNK,KELLEYS,120CT-KELLEYS,120CT-DHARMAPRAKASH/PETROL BUNK
120CT,4,KELLEYS,SAYANI/AYNAVARAM,120CT-SAYANI/AYNAVARAM,120CT-KELLEYS
120CT,5,SAYANI/AYNAVARAM,KAMABAR ARANGAM,120CT-KAMABAR ARANGAM,120CT-SAYANI/AYNAVARAM
120CT,6,KAMABAR ARANGAM,NATHAMUNI TALKIES,120CT-NATHAMUNI TALKIES,120CT-KAMABAR ARANGAM
120CT,7,NATHAMUNI TALKIES,LUCAS TVS,120CT-LUCAS TVS,120CT-NATHAMUNI TALKIES
120CT,8,LUCAS TVS,AMBATTUR I.E.,120CT-AMBATTUR I.E.,120CT-LUCAS TVS
120CT,9,AMBATTUR I.E.,DUNLOP,DUNLOP,120CT-AMBATTUR I.E.
120CT,10,DUNLOP,AMBATTUR O.T.,120CT-AMBATTUR O.T.,DUNLOP
120CT,11,AMBATTUR O.T.,THIRUMULLAIVOYAL,120CT-THIRUMULLAIVOYAL,120CT-AMBATTUR O.T.
120CT,12,THIRUMULLAIVOYAL,PERIYAR NAGAR,120CT-PERIYAR NAGAR,120CT-THIRUMULLAIVOYAL
120CT,13,PERIYAR NAGAR,VENKATACHALAM NAGAR,120CT-VENKATACHALAM NAGAR,120CT-PERIYAR NAGAR
120CT,14,VENKATACHALAM NAGAR,120CT,120CT,120CT-VENKATACHALAM NAGAR
120E,1,BROADWAY,M.G.R.CENTRAL,120E-M.G.R.CENTRAL,120E-BROADWAY
120E,2,M.G.R.CENTRAL,DHARMAPRAKASH/PETROL BUNK,120E-DHARMAPRAKASH/PETROL BUNK,120E-M.G.R.CENTRAL
120E,3,DHARMAPRAKASH/PETROL BUNK,KELLEYS,120E-KELLEYS,120E-DHARMAPRAKASH/PETROL BUNK
120E,4,KELLEYS,SAYANI/AYNAVARAM,120E-SAYANI/AYNAVARAM,120E-KELLEYS
120E,5,SAYANI/AYNAVARAM,KAMABAR ARANGAM,120E-KAMABAR ARANGAM,120E-SAYANI/AYNAVARAM
120E,6,KAMABAR ARANGAM,NATHAMUNI TALKIES,120E-NATHAMUNI TALKIES,120E-KAMABAR ARANGAM
120E,7,NATHAMUNI TALKIES,LUCAS TVS,120E-LUCAS TVS,120E-NATHAMUNI TALKIES
120E,8,LUCAS TVS,AMBATTUR I.E.,120E-AMBATTUR I.E.,120E-LUCAS TVS
120E,9,AMBATTUR I.E.,DUNLOP,DUNLOP,120E-AMBATTUR I.E.
120E,10,DUNLOP,AMBATTUR O.T.,120E-AMBATTUR O.T.,DUNLOP
120E,11,AMBATTUR O.T.,THIRUMULLAIVOYAL,120E-THIRUMULLAIVOYAL,120E-AMBATTUR O.T.
120E,12,THIRUMULLAIVOYAL,POLYTECHNIC,120E-POLYTECHNIC,120E-THIRUMULLAIVOYAL
120E,13,POLYTECHNIC,AVADI CIRCLE,120E-AVADI CIRCLE,120E-POLYTECHNIC
120E,14,AVADI CIRCLE,KOILPATHAGAI RD.JN.,120E-KOILPATHAGAI RD.JN.,120E-AVADI CIRCLE
120E,15,KOILPATHAGAI RD.JN.,H.V.F.MAIN GATE,120E-H.V.F.MAIN GATE,120E-KOILPATHAGAI RD.JN.
120E,16,H.V.F.MAIN GATE,AAFS CROSS ROAD,120E-AAFS CROSS ROAD,120E-H.V.F.MAIN GATE
120E,17,AAFS CROSS ROAD,VENGAL CROSS ROAD,120E-VENGAL CROSS ROAD,120E-AAFS CROSS ROAD
120E,18,VENGAL CROSS ROAD,VEERAPURAM,120E-VEERAPURAM,120E-VENGAL CROSS ROAD
120E,19,VEERAPURAM,ARAKKAMBAKKAM,120E-ARAKKAMBAKKAM,120E-VEERAPURAM
120E,20,ARAKKAMBAKKAM,PANDESWARAM,120E-PANDESWARAM,120E-ARAKKAMBAKKAM
120E,21,PANDESWARAM,KADHAVOOR RD.JN.,120E-KADHAVOOR RD.JN.,120E-PANDESWARAM
120E,22,KADHAVOOR RD.JN.,KILKONDAIYUR,120E-KILKONDAIYUR,120E-KADHAVOOR RD.JN.
120E,23,KILKONDAIYUR,120E,120E,120E-KILKONDAIYUR
120F,1,BROADWAY,M.G.R.CENTRAL,120F-M.G.R.CENTRAL,120F-BROADWAY
120F,2,M.G.R.CENTRAL,DHARMAPRAKASH/PETROL BUNK,120F-DHARMAPRAKASH/PETROL BUNK,120F-M.G.R.CENTRAL
120F,3,DHARMAPRAKASH/PETROL BUNK,KELLEYS,120F-KELLEYS,120F-DHARMAPRAKASH/PETROL BUNK
120F,4,KELLEYS,SAYANI/AYNAVARAM,120F-SAYANI/AYNAVARAM,120F-KELLEYS
120F,5,SAYANI/AYNAVARAM,KAMABAR ARANGAM,120F-KAMABAR ARANGAM,120F-SAYANI/AYNAVARAM
120F,6,KAMABAR ARANGAM,NATHAMUNI TALKIES,120F-NATHAMUNI TALKIES,120F-KAMABAR ARANGAM
120F,7,NATHAMUNI TALKIES,LUCAS TVS,120F-LUCAS TVS,120F-NATHAMUNI TALKIES
120F,8,LUCAS TVS,AMBATTUR I.E.,120F-AMBATTUR I.E.,120F-LUCAS TVS
120F,9,AMBATTUR I.E.,DUNLOP,DUNLOP,120F-AMBATTUR I.E.
120F,10,DUNLOP,AMBATTUR O.T.,120F-AMBATTUR O.T.,DUNLOP
120F,11,AMBATTUR O.T.,ORAGADAM O.T.,120F-ORAGADAM O.T.,120F-AMBATTUR O.T.
120F,12,ORAGADAM O.T.,ORAGADAM,120F-ORAGADAM,120F-ORAGADAM O.T.
120F,13,ORAGADAM,120F,120F,120F-ORAGADAM
120G,1,BROADWAY,M.G.R.CENTRAL,120G-M.G.R.CENTRAL,120G-BROADWAY
120G,2,M.G.R.CENTRAL,DHARMAPRAKASH/PETROL BUNK,120G-DHARMAPRAKASH/PETROL BUNK,120G-M.G.R.CENTRAL
120G,3,DHARMAPRAKASH/PETROL BUNK,KELLEYS,120G-KELLEYS,120G-DHARMAPRAKASH/PETROL BUNK
120G,4,KELLEYS,SAYANI/AYNAVARAM,120G-SAYANI/AYNAVARAM,120G-KELLEYS
120G,5,SAYANI/AYNAVARAM,KAMABAR ARANGAM,120G-KAMABAR ARANGAM,120G-SAYANI/AYNAVARAM
120G,6,KAMABAR ARANGAM,NATHAMUNI TALKIES,120G-NATHAMUNI TALKIES,120G-KAMABAR ARANGAM
120G,7,NATHAMUNI TALKIES,LUCAS TVS,120G-LUCAS TVS,120G-NATHAMUNI TALKIES
120G,8,LUCAS TVS,AMBATTUR I.E.,120G-AMBATTUR I.E.,120G-LUCAS TVS
120G,9,AMBATTUR I.E.,DUNLOP,DUNLOP,120G-AMBATTUR I.E.
120G,10,DUNLOP,AMBATTUR O.T.,120G-AMBATTUR O.T.,DUNLOP
120G,11,AMBATTUR O.T.,VENGATAPURAM,120G-VENGATAPURAM,120G-AMBATTUR O.T.
120G,12,VENGATAPURAM,MENAMBEDU,120G-MENAMBEDU,120G-VENGATAPURAM
120G,13,MENAMBEDU,120G,120G,120G-MENAMBEDU
120K,1,BROADWAY,M.G.R.CENTRAL,120K-M.G.R.CENTRAL,120K-BROADWAY
120K,2,M.G.R.CENTRAL,DHARMAPRAKASH/PETROL BUNK,120K-DHARMAPRAKASH/PETROL BUNK,120K-M.G.R.CENTRAL
120K,3,DHARMAPRAKASH/PETROL BUNK,KELLEYS,120K-KELLEYS,120K-DHARMAPRAKASH/PETROL BUNK
120K,4,KELLEYS,SAYANI/AYNAVARAM,120K-SAYANI/AYNAVARAM,120K-KELLEYS
120K,5,SAYANI/AYNAVARAM,KAMABAR ARANGAM,120K-KAMABAR ARANGAM,120K-SAYANI/AYNAVARAM
120K,6,KAMABAR ARANGAM,NATHAMUNI TALKIES,120K-NATHAMUNI TALKIES,120K-KAMABAR ARANGAM
120K,7,NATHAMUNI TALKIES,LUCAS TVS,120K-LUCAS TVS,120K-NATHAMUNI TALKIES
120K,8,LUCAS TVS,AMBATTUR I.E.,120K-AMBATTUR I.E.,120K-LUCAS TVS
120K,9,AMBATTUR I.E.,DUNLOP,DUNLOP,120K-AMBATTUR I.E.
120K,10,DUNLOP,AMBATTUR O.T.,120K-AMBATTUR O.T.,DUNLOP
120K,11,AMBATTUR O.T.,THIRUMULLAIVOYAL,120K-THIRUMULLAIVOYAL,120K-AMBATTUR O.T.
120K,12,THIRUMULLAIVOYAL,POLYTECHNIC,120K-POLYTECHNIC,120K-THIRUMULLAIVOYAL
120K,13,POLYTECHNIC,AVADI CIRCLE,120K-AVADI CIRCLE,120K-POLYTECHNIC
120K,14,AVADI CIRCLE,KOILPATHAGAI RD.JN.,120K-KOILPATHAGAI RD.JN.,120K-AVADI CIRCLE
120K,15,KOILPATHAGAI RD.JN.,H.V.F.MAIN GATE,120K-H.V.F.MAIN GATE,120K-KOILPATHAGAI RD.JN.
120K,16,H.V.F.MAIN GATE,AIRFORCE STATION,120K-AIRFORCE STATION,120K-H.V.F.MAIN GATE
120K,17,AIRFORCE STATION,VENGAL CROSS ROAD,120K-VENGAL CROSS ROAD,120K-AIRFORCE STATION
120K,18,VENGAL CROSS ROAD,VEERAPURAM,120K-VEERAPURAM,120K-VENGAL CROSS ROAD
120K,19,VEERAPURAM,NALLUR PUDU NAGAR,120K-NALLUR PUDU NAGAR,120K-VEERAPURAM
120K,20,NALLUR PUDU NAGAR,KADHAVOOR,120K-KADHAVOOR,120K-NALLUR PUDU NAGAR
120K,21,KADHAVOOR,120K,120K,120K-KADHAVOOR
120KET,1,BROADWAY,M.G.R.CENTRAL,120KET-M.G.R.CENTRAL,120KET-BROADWAY
120KET,2,M.G.R.CENTRAL,DHARMAPRAKASH/PETROL BUNK,120KET-DHARMAPRAKASH/PETROL BUNK,120KET-M.G.R.CENTRAL
120KET,3,DHARMAPRAKASH/PETROL BUNK,KELLEYS,120KET-KELLEYS,120KET-DHARMAPRAKASH/PETROL BUNK
120KET,4,KELLEYS,SAYANI/AYNAVARAM,120KET-SAYANI/AYNAVARAM,120KET-KELLEYS
120KET,5,SAYANI/AYNAVARAM,KAMABAR ARANGAM,120KET-KAMABAR ARANGAM,120KET-SAYANI/AYNAVARAM
120KET,6,KAMABAR ARANGAM,NATHAMUNI TALKIES,120KET-NATHAMUNI TALKIES,120KET-KAMABAR ARANGAM
120KET,7,NATHAMUNI TALKIES,LUCAS TVS,120KET-LUCAS TVS,120KET-NATHAMUNI TALKIES
120KET,8,LUCAS TVS,AMBATTUR I.E.,120KET-AMBATTUR I.E.,120KET-LUCAS TVS
120KET,9,AMBATTUR I.E.,DUNLOP,DUNLOP,120KET-AMBATTUR I.E.
120KET,10,DUNLOP,AMBATTUR O.T.,120KET-AMBATTUR O.T.,DUNLOP
120KET,11,AMBATTUR O.T.,THIRUMULLAIVOYAL,120KET-THIRUMULLAIVOYAL,120KET-AMBATTUR O.T.
120KET,12,THIRUMULLAIVOYAL,POLYTECHNIC,120KET-POLYTECHNIC,120KET-THIRUMULLAIVOYAL
120KET,13,POLYTECHNIC,AVADI CIRCLE,120KET-AVADI CIRCLE,120KET-POLYTECHNIC
120KET,14,AVADI CIRCLE,KOILPATHAGAI RD.JN.,120KET-KOILPATHAGAI RD.JN.,120KET-AVADI CIRCLE
120KET,15,KOILPATHAGAI RD.JN.,H.V.F.MAIN GATE,120KET-H.V.F.MAIN GATE,120KET-KOILPATHAGAI RD.JN.
120KET,16,H.V.F.MAIN GATE,AAFS CROSS ROAD,120KET-AAFS CROSS ROAD,120KET-H.V.F.MAIN GATE
120KET,17,AAFS CROSS ROAD,VENGAL CROSS ROAD,120KET-VENGAL CROSS ROAD,120KET-AAFS CROSS ROAD
120KET,18,VENGAL CROSS ROAD,VEERAPURAM RD JN.,120KET-VEERAPURAM RD JN.,120KET-VENGAL CROSS ROAD
120KET,19,VEERAPURAM RD JN.,MORAI,120KET-MORAI,120KET-VEERAPURAM RD JN.
120KET,20,MORAI,KADHAVOOR,120KET-KADHAVOOR,120KET-MORAI
120KET,21,KADHAVOOR,KADHAVOOR RD.JN.,120KET-KADHAVOOR RD.JN.,120KET-KADHAVOOR
120KET,22,KADHAVOOR RD.JN.,KILKONDAIYUR,120KET-KILKONDAIYUR,120KET-KADHAVOOR RD.JN.
120KET,23,KILKONDAIYUR,120KET,120KET,120KET-KILKONDAIYUR
147C,1,AMBATTUR O.T.,DUNLOP,DUNLOP,147C-AMBATTUR O.T.
147C,2,DUNLOP,AMBATTUR I.E.,147C-AMBATTUR I.E.,DUNLOP
147C,3,AMBATTUR I.E.,MOGAIPAIR ROAD JN.,147C-MOGAIPAIR ROAD JN.,147C-AMBATTUR I.E.
147C,4,MOGAIPAIR ROAD JN.,THIRUMANGALAM,147C-THIRUMANGALAM,147C-MOGAIPAIR ROAD JN.
147C,5,THIRUMANGALAM,ANNA NAGAR CIRCLE,147C-ANNA NAGAR CIRCLE,147C-THIRUMANGALAM
147C,6,ANNA NAGAR CIRCLE,HOTEL ARUN,147C-HOTEL ARUN,147C-ANNA NAGAR CIRCLE
147C,7,HOTEL ARUN,NUNGAMBAKKAM R.S.,147C-NUNGAMBAKKAM R.S.,147C-HOTEL ARUN
147C,8,NUNGAMBAKKAM R.S.,STERLING RD./METROLOG. DEPT.,147C-STERLING RD./METROLOG. DEPT.,147C-NUNGAMBAKKAM R.S.
147C,9,STERLING RD./METROLOG. DEPT.,UTHAMAR GANDHISALAI (CORP.OFF),147C-UTHAMAR GANDHISALAI (CORP.OFF),147C-STERLING RD./METROLOG. DEPT.
147C,10,UTHAMAR GANDHISALAI (CORP.OFF),VIDYODAYA,147C-VIDYODAYA,147C-UTHAMAR GANDHISALAI (CORP.OFF)
147C,11,VIDYODAYA,PONDY BAZAAR,147C-PONDY BAZAAR,147C-VIDYODAYA
147C,12,PONDY BAZAAR,THIAGARAYA NAGAR,147C-THIAGARAYA NAGAR,147C-PONDY BAZAAR
147C,13,THIAGARAYA NAGAR,147C,147C,147C-THIAGARAYA NAGAR
147V,1,VENKATACHALAM NAGAR,VINAYAGAR KOIL,147V-VINAYAGAR KOIL,147V-VENKATACHALAM NAGAR
147V,2,VINAYAGAR KOIL,THIRUMULLAIVOYAL,147V-THIRUMULLAIVOYAL,147V-VINAYAGAR KOIL
147V,3,THIRUMULLAIVOYAL,AMBATTUR O.T.,147V-AMBATTUR O.T.,147V-THIRUMULLAIVOYAL
147V,4,AMBATTUR O.T.,DUNLOP,DUNLOP,147V-AMBATTUR O.T.
147V,5,DUNLOP,MOGAIPAIR ROAD JN.,147V-MOGAIPAIR ROAD JN.,DUNLOP
147V,6,MOGAIPAIR ROAD JN.,THIRUMANGALAM,147V-THIRUMANGALAM,147V-MOGAIPAIR ROAD JN.
147V,7,THIRUMANGALAM,ANNA NAGAR CIRCLE,147V-ANNA NAGAR CIRCLE,147V-THIRUMANGALAM
147V,8,ANNA NAGAR CIRCLE,HOTEL ARUN,147V-HOTEL ARUN,147V-ANNA NAGAR CIRCLE
147V,9,HOTEL ARUN,NUNGAMBAKKAM R.S.,147V-NUNGAMBAKKAM R.S.,147V-HOTEL ARUN
147V,10,NUNGAMBAKKAM R.S.,STERLING RD./METROLOG. DEPT.,147V-STERLING RD./METROLOG. DEPT.,147V-NUNGAMBAKKAM R.S.
147V,11,STERLING RD./METROLOG. DEPT.,UTHAMAR GANDHISALAI (CORP.OFF),147V-UTHAMAR GANDHISALAI (CORP.OFF),147V-STERLING RD./METROLOG. DEPT.
147V,12,UTHAMAR GANDHISALAI (CORP.OFF),VIDYODAYA,147V-VIDYODAYA,147V-UTHAMAR GANDHISALAI (CORP.OFF)
147V,13,VIDYODAYA,PONDY BAZAAR,147V-PONDY BAZAAR,147V-VIDYODAYA
147V,14,PONDY BAZAAR,THIAGARAYA NAGAR,147V-THIAGARAYA NAGAR,147V-PONDY BAZAAR
147V,15,THIAGARAYA NAGAR,147V,147V,147V-THIAGARAYA NAGAR
20P,1,AMBATTUR I.E.,DUNLOP,DUNLOP,20P-AMBATTUR I.E.
20P,2,DUNLOP,I.C.F.COLONY,20P-I.C.F.COLONY,DUNLOP
20P,3,I.C.F.COLONY,MEL AYNAMBAKKAM,20P-MEL AYNAMBAKKAM,20P-I.C.F.COLONY
20P,4,MEL AYNAMBAKKAM,AYNAMBAKKAM(3STATUE JN.),20P-AYNAMBAKKAM(3STATUE JN.),20P-MEL AYNAMBAKKAM
20P,5,AYNAMBAKKAM(3STATUE JN.),VANAGARAM,20P-VANAGARAM,20P-AYNAMBAKKAM(3STATUE JN.)
20P,6,VANAGARAM,VELAPPANCHAVADI,20P-VELAPPANCHAVADI,20P-VANAGARAM
20P,7,VELAPPANCHAVADI,KUMUNANCHAVADI,20P-KUMUNANCHAVADI,20P-VELAPPANCHAVADI
20P,8,KUMUNANCHAVADI,POONAMALLEE,20P-POONAMALLEE,20P-KUMUNANCHAVADI
20P,9,POONAMALLEE,20P,20P,20P-POONAMALLEE
40A,1,ANNA SQUARE,TRIPLICANE,40A-TRIPLICANE,40A-ANNA SQUARE
40A,2,TRIPLICANE,ANNA POORNA HOTEL/DAMS RD,40A-ANNA POORNA HOTEL/DAMS RD,40A-TRIPLICANE
40A,3,ANNA POORNA HOTEL/DAMS RD,EGMORE,40A-EGMORE,40A-ANNA POORNA HOTEL/DAMS RD
40A,4,EGMORE,DASAPRAKASH,40A-DASAPRAKASH,40A-EGMORE
40A,5,DASAPRAKASH,TAYLORS ROAD,40A-TAYLORS ROAD,40A-DASAPRAKASH
40A,6,TAYLORS ROAD,AMINJIKARAI,40A-AMINJIKARAI,40A-TAYLORS ROAD
40A,7,AMINJIKARAI,ANNA NAGAR CIRCLE,40A-ANNA NAGAR CIRCLE,40A-AMINJIKARAI
40A,8,ANNA NAGAR CIRCLE,THIRUMANGALAM,40A-THIRUMANGALAM,40A-ANNA NAGAR CIRCLE
40A,9,THIRUMANGALAM,MOGAIPAIR ROAD JN.,40A-MOGAIPAIR ROAD JN.,40A-THIRUMANGALAM
40A,10,MOGAIPAIR ROAD JN.,AMBATTUR I.E.,40A-AMBATTUR I.E.,40A-MOGAIPAIR ROAD JN.
40A,11,AMBATTUR I.E.,DUNLOP,DUNLOP,40A-AMBATTUR I.E.
40A,12,DUNLOP,AMBATTUR O.T.,40A-AMBATTUR O.T.,DUNLOP
40A,13,AMBATTUR O.T.,THIRUMULLAIVOYAL,40A-THIRUMULLAIVOYAL,40A-AMBATTUR O.T.
40A,14,THIRUMULLAIVOYAL,POLYTECHNIC,40A-POLYTECHNIC,40A-THIRUMULLAIVOYAL
40A,15,POLYTECHNIC,AVADI,40A-AVADI,40A-POLYTECHNIC
40A,16,AVADI,KAVARAIPALAYAM,40A-KAVARAIPALAYAM,40A-AVADI
40A,17,KAVARAIPALAYAM,PATTABIRAM,40A-PATTABIRAM,40A-KAVARAIPALAYAM
40A,18,PATTABIRAM,40A,40A,40A-PATTABIRAM
40H,1,ANNA SQUARE,TRIPLICANE,40H-TRIPLICANE,40H-ANNA SQUARE
40H,2,TRIPLICANE,ANNA ROAD P.O./DAMS ROAD,40H-ANNA ROAD P.O./DAMS ROAD,40H-TRIPLICANE
40H,3,ANNA ROAD P.O./DAMS ROAD,POSTAL AUDIT OFFICE,40H-POSTAL AUDIT OFFICE,40H-ANNA ROAD P.O./DAMS ROAD
40H,4,POSTAL AUDIT OFFICE,STERLING RD./METROLOG. DEPT.,40H-STERLING RD./METROLOG. DEPT.,40H-POSTAL AUDIT OFFICE
40H,5,STERLING RD./METROLOG. DEPT.,NUNGAMBAKKAM R.S.,40H-NUNGAMBAKKAM R.S.,40H-STERLING RD./METROLOG. DEPT.
40H,6,NUNGAMBAKKAM R.S.,HOTEL ARUN,40H-HOTEL ARUN,40H-NUNGAMBAKKAM R.S.
40H,7,HOTEL ARUN,ANNA NAGAR CIRCLE,40H-ANNA NAGAR CIRCLE,40H-HOTEL ARUN
40H,8,ANNA NAGAR CIRCLE,THIRUMANGALAM,40H-THIRUMANGALAM,40H-ANNA NAGAR CIRCLE
40H,9,THIRUMANGALAM,LUCAS TVS,40H-LUCAS TVS,40H-THIRUMANGALAM
40H,10,LUCAS TVS,AMBATTUR I.E.,40H-AMBATTUR I.E.,40H-LUCAS TVS
40H,11,AMBATTUR I.E.,DUNLOP,DUNLOP,40H-AMBATTUR I.E.
40H,12,DUNLOP,AMBATTUR O.T.,40H-AMBATTUR O.T.,DUNLOP
40H,13,AMBATTUR O.T.,THIRUMULLAIVOYAL,40H-THIRUMULLAIVOYAL,40H-AMBATTUR O.T.
40H,14,THIRUMULLAIVOYAL,POLYTECHNIC,40H-POLYTECHNIC,40H-THIRUMULLAIVOYAL
40H,15,POLYTECHNIC,AVADI,40H-AVADI,40H-POLYTECHNIC
40H,16,AVADI,KAVARAIPALAYAM,40H-KAVARAIPALAYAM,40H-AVADI
40H,17,KAVARAIPALAYAM,PATTABIRAM,40H-PATTABIRAM,40H-KAVARAIPALAYAM
40H,18,PATTABIRAM,40H,40H,40H-PATTABIRAM
41D,1,MANDAVELI,ADYAR GATE,41D-ADYAR GATE,41D-MANDAVELI
41D,2,ADYAR GATE,DEFENCE QUARTERS,41D-DEFENCE QUARTERS,41D-ADYAR GATE
41D,3,DEFENCE QUARTERS,D.M.S,41D-D.M.S,41D-DEFENCE QUARTERS
41D,4,D.M.S,STERLING RD./METROLOG. DEPT.,41D-STERLING RD./METROLOG. DEPT.,41D-D.M.S
41D,5,STERLING RD./METROLOG. DEPT.,TAYLORS ROAD,41D-TAYLORS ROAD,41D-STERLING RD./METROLOG. DEPT.
41D,6,TAYLORS ROAD,AMINJIKARAI,41D-AMINJIKARAI,41D-TAYLORS ROAD
41D,7,AMINJIKARAI,ANNA NAGAR CIRCLE,41D-ANNA NAGAR CIRCLE,41D-AMINJIKARAI
41D,8,ANNA NAGAR CIRCLE,THIRUMANGALAM,41D-THIRUMANGALAM,41D-ANNA NAGAR CIRCLE
41D,9,THIRUMANGALAM,LUCAS TVS,41D-LUCAS TVS,41D-THIRUMANGALAM
41D,10,LUCAS TVS,JN.OF CENTRAL AVENUE&ERIKARAI,41D-JN.OF CENTRAL AVENUE&ERIKARAI,41D-LUCAS TVS
41D,11,JN.OF CENTRAL AVENUE&ERIKARAI,VINAYAGAR KOIL,41D-VINAYAGAR KOIL,41D-JN.OF CENTRAL AVENUE&ERIKARAI
41D,12,VINAYAGAR KOIL,DUNLOP,DUNLOP,41D-VINAYAGAR KOIL
41D,13,DUNLOP,AMBATTUR O.T.,41D-AMBATTUR O.T.,DUNLOP
41D,14,AMBATTUR O.T.,41D,41D,41D-AMBATTUR O.T.
47C,1,KOTTURPURAM,ENG.COLLEGE,47C-ENG.COLLEGE,47C-KOTTURPURAM
47C,2,ENG.COLLEGE,CONCORDE,47C-CONCORDE,47C-ENG.COLLEGE
47C,3,CONCORDE,SAIDAPET,47C-SAIDAPET,47C-CONCORDE
47C,4,SAIDAPET,THIAGARAYA NAGAR,47C-THIAGARAYA NAGAR,47C-SAIDAPET
47C,5,THIAGARAYA NAGAR,BHARATHI NAGAR,47C-BHARATHI NAGAR,47C-THIAGARAYA NAGAR
47C,6,BHARATHI NAGAR,MAHALINGAPURAM,47C-MAHALINGAPURAM,47C-BHARATHI NAGAR
47C,7,MAHALINGAPURAM,NUNGAMBAKKAM R.S.,47C-NUNGAMBAKKAM R.S.,47C-MAHALINGAPURAM
47C,8,NUNGAMBAKKAM R.S.,HOTEL ARUN,47C-HOTEL ARUN,47C-NUNGAMBAKKAM R.S.
47C,9,HOTEL ARUN,ANNA NAGAR CIRCLE,47C-ANNA NAGAR CIRCLE,47C-HOTEL ARUN
47C,10,ANNA NAGAR CIRCLE,THIRUMANGALAM,47C-THIRUMANGALAM,47C-ANNA NAGAR CIRCLE
47C,11,THIRUMANGALAM,MOGAPPAIR RD.JN.,47C-MOGAPPAIR RD.JN.,47C-THIRUMANGALAM
47C,12,MOGAPPAIR RD.JN.,AMBATTUR I.E.,47C-AMBATTUR I.E.,47C-MOGAPPAIR RD.JN.
47C,13,AMBATTUR I.E.,DUNLOP,DUNLOP,47C-AMBATTUR I.E.
47C,14,DUNLOP,AMBATTUR O.T.,47C-AMBATTUR O.T.,DUNLOP
47C,15,AMBATTUR O.T.,47C,47C,47C-AMBATTUR O.T.
47CX,1,THIAGARAYA NAGAR,PONDY BAZAAR,47CX-PONDY BAZAAR,47CX-THIAGARAYA NAGAR
47CX,2,PONDY BAZAAR,VIDYODAYA,47CX-VIDYODAYA,47CX-PONDY BAZAAR
47CX,3,VIDYODAYA,UTHAMAR GANDHISALAI (CORP.OFF),47CX-UTHAMAR GANDHISALAI (CORP.OFF),47CX-VIDYODAYA
47CX,4,UTHAMAR GANDHISALAI (CORP.OFF),STERLING RD./METROLOG. DEPT.,47CX-STERLING RD./METROLOG. DEPT.,47CX-UTHAMAR GANDHISALAI (CORP.OFF)
47CX,5,STERLING RD./METROLOG. DEPT.,NUNGAMBAKKAM R.S.,47CX-NUNGAMBAKKAM R.S.,47CX-STERLING RD./METROLOG. DEPT.
47CX,6,NUNGAMBAKKAM R.S.,HOTEL ARUN,47CX-HOTEL ARUN,47CX-NUNGAMBAKKAM R.S.
47CX,7,HOTEL ARUN,ANNA NAGAR CIRCLE,47CX-ANNA NAGAR CIRCLE,47CX-HOTEL ARUN
47CX,8,ANNA NAGAR CIRCLE,THIRUMANGALAM,47CX-THIRUMANGALAM,47CX-ANNA NAGAR CIRCLE
47CX,9,THIRUMANGALAM,MOGAIPAIR ROAD JN.,47CX-MOGAIPAIR ROAD JN.,47CX-THIRUMANGALAM
47CX,10,MOGAIPAIR ROAD JN.,AMBATTUR I.E.,47CX-AMBATTUR I.E.,47CX-MOGAIPAIR ROAD JN.
47CX,11,AMBATTUR I.E.,DUNLOP,DUNLOP,47CX-AMBATTUR I.E.
47CX,12,DUNLOP,AYYAPPA NAGAR,47CX-AYYAPPA NAGAR,DUNLOP
47CX,13,AYYAPPA NAGAR,2ND WATER TANK ON SECOND AVE.,47CX-2ND WATER TANK ON SECOND AVE.,47CX-AYYAPPA NAGAR
47CX,14,2ND WATER TANK ON SECOND AVE.,AYAPPAKKAM,47CX-AYAPPAKKAM,47CX-2ND WATER TANK ON SECOND AVE.
47CX,15,AYAPPAKKAM,47CX,47CX,47CX-AYAPPAKKAM
47D,1,THIRUVANMIYUR,ADYAR DEPOT,47D-ADYAR DEPOT,47D-THIRUVANMIYUR
47D,2,ADYAR DEPOT,ADYAR B.S.,47D-ADYAR B.S.,47D-ADYAR DEPOT
47D,3,ADYAR B.S.,ENG.COLLEGE,47D-ENG.COLLEGE,47D-ADYAR B.S.
47D,4,ENG.COLLEGE,CONCORDE,47D-CONCORDE,47D-ENG.COLLEGE
47D,5,CONCORDE,SAIDAPET,47D-SAIDAPET,47D-CONCORDE
47D,6,SAIDAPET,THIAGARAYA NAGAR,47D-THIAGARAYA NAGAR,47D-SAIDAPET
47D,7,THIAGARAYA NAGAR,VIVEK & CO (KRISHNAN KOIL),47D-VIVEK & CO (KRISHNAN KOIL),47D-THIAGARAYA NAGAR
47D,8,VIVEK & CO (KRISHNAN KOIL),VIDYODAYA,47D-VIDYODAYA,47D-VIVEK & CO (KRISHNAN KOIL)
47D,9,VIDYODAYA,STERLING RD./METROLOG. DEPT.,47D-STERLING RD./METROLOG. DEPT.,47D-VIDYODAYA
47D,10,STERLING RD./METROLOG. DEPT.,NUNGAMBAKKAM R.S.,47D-NUNGAMBAKKAM R.S.,47D-STERLING RD./METROLOG. DEPT.
47D,11,NUNGAMBAKKAM R.S.,HOTEL ARUN,47D-HOTEL ARUN,47D-NUNGAMBAKKAM R.S.
47D,12,HOTEL ARUN,ANNA NAGAR CIRCLE,47D-ANNA NAGAR CIRCLE,47D-HOTEL ARUN
47D,13,ANNA NAGAR CIRCLE,THIRUMANGALAM,47D-THIRUMANGALAM,47D-ANNA NAGAR CIRCLE
47D,14,THIRUMANGALAM,LUCAS TVS,47D-LUCAS TVS,47D-THIRUMANGALAM
47D,15,LUCAS TVS,AMBATTUR I.E.,47D-AMBATTUR I.E.,47D-LUCAS TVS
47D,16,AMBATTUR I.E.,DUNLOP,DUNLOP,47D-AMBATTUR I.E.
47D,17,DUNLOP,AMBATTUR O.T.,47D-AMBATTUR O.T.,DUNLOP
47D,18,AMBATTUR O.T.,THIRUMULLAIVOYAL,47D-THIRUMULLAIVOYAL,47D-AMBATTUR O.T.
47D,19,THIRUMULLAIVOYAL,POLYTECHNIC,47D-POLYTECHNIC,47D-THIRUMULLAIVOYAL
47D,20,POLYTECHNIC,AVADI,47D-AVADI,47D-POLYTECHNIC
47D,21,AVADI,47D,47D,47D-AVADI
48B,1,VALLALAR NAGAR,P1.POLICE STATION,48B-P1.POLICE STATION,48B-VALLALAR NAGAR
48B,2,P1.POLICE STATION,DASAMAHAN,48B-DASAMAHAN,48B-P1.POLICE STATION
48B,3,DASAMAHAN,SAYANI/AYNAVARAM,48B-SAYANI/AYNAVARAM,48B-DASAMAHAN
48B,4,SAYANI/AYNAVARAM,KAMABAR ARANGAM,48B-KAMABAR ARANGAM,48B-SAYANI/AYNAVARAM
48B,5,KAMABAR ARANGAM,NATHAMUNI TALKIES,48B-NATHAMUNI TALKIES,48B-KAMABAR ARANGAM
48B,6,NATHAMUNI TALKIES,LUCAS TVS,48B-LUCAS TVS,48B-NATHAMUNI TALKIES
48B,7,LUCAS TVS,AMBATTUR I.E.,48B-AMBATTUR I.E.,48B-LUCAS TVS
48B,8,AMBATTUR I.E.,DUNLOP,DUNLOP,48B-AMBATTUR I.E.
48B,9,DUNLOP,AMBATTUR O.T.,48B-AMBATTUR O.T.,DUNLOP
48B,10,AMBATTUR O.T.,PUDUR,48B-PUDUR,48B-AMBATTUR O.T.
48B,11,PUDUR,48B,48B,48B-PUDUR
48BX,1,VALLALAR NAGAR,P1.POLICE STATION,48BX-P1.POLICE STATION,48BX-VALLALAR NAGAR
48BX,2,P1.POLICE STATION,DASAMAHAN,48BX-DASAMAHAN,48BX-P1.POLICE STATION
48BX,3,DASAMAHAN,SAYANI/AYNAVARAM,48BX-SAYANI/AYNAVARAM,48BX-DASAMAHAN
48BX,4,SAYANI/AYNAVARAM,KAMABAR ARANGAM,48BX-KAMABAR ARANGAM,48BX-SAYANI/AYNAVARAM
48BX,5,KAMABAR ARANGAM,NATHAMUNI TALKIES,48BX-NATHAMUNI TALKIES,48BX-KAMABAR ARANGAM
48BX,6,NATHAMUNI TALKIES,LUCAS TVS,48BX-LUCAS TVS,48BX-NATHAMUNI TALKIES
48BX,7,LUCAS TVS,AMBATTUR I.E.,48BX-AMBATTUR I.E.,48BX-LUCAS TVS
48BX,8,AMBATTUR I.E.,DUNLOP,DUNLOP,48BX-AMBATTUR I.E.
48BX,9,DUNLOP,AMBATTUR O.T.,48BX-AMBATTUR O.T.,DUNLOP
48BX,10,AMBATTUR O.T.,ORAGADAM O.T.,48BX-ORAGADAM O.T.,48BX-AMBATTUR O.T.
48BX,11,ORAGADAM O.T.,ORAGADAM,48BX-ORAGADAM,48BX-ORAGADAM O.T.
48BX,12,ORAGADAM,48BX,48BX,48BX-ORAGADAM
48K,1,VALLALAR NAGAR,P1.POLICE STATION,48K-P1.POLICE STATION,48K-VALLALAR NAGAR
48K,2,P1.POLICE STATION,DASAMAHAN,48K-DASAMAHAN,48K-P1.POLICE STATION
48K,3,DASAMAHAN,SAYANI/AYNAVARAM,48K-SAYANI/AYNAVARAM,48K-DASAMAHAN
48K,4,SAYANI/AYNAVARAM,KAMABAR ARANGAM,48K-KAMABAR ARANGAM,48K-SAYANI/AYNAVARAM
48K,5,KAMABAR ARANGAM,NATHAMUNI TALKIES,48K-NATHAMUNI TALKIES,48K-KAMABAR ARANGAM
48K,6,NATHAMUNI TALKIES,LUCAS TVS,48K-LUCAS TVS,48K-NATHAMUNI TALKIES
48K,7,LUCAS TVS,AMBATTUR I.E.,48K-AMBATTUR I.E.,48K-LUCAS TVS
48K,8,AMBATTUR I.E.,DUNLOP,DUNLOP,48K-AMBATTUR I.E.
48K,9,DUNLOP,AMBATTUR O.T.,48K-AMBATTUR O.T.,DUNLOP
48K,10,AMBATTUR O.T.,PUDUR,48K-PUDUR,48K-AMBATTUR O.T.
48K,11,PUDUR,KALLIKUPPAM,48K-KALLIKUPPAM,48K-PUDUR
48K,12,KALLIKUPPAM,48K,48K,48K-KALLIKUPPAM
48P,1,VALLALAR NAGAR,P1.POLICE STATION,48P-P1.POLICE STATION,48P-VALLALAR NAGAR
48P,2,P1.POLICE STATION,DASAMAHAN,48P-DASAMAHAN,48P-P1.POLICE STATION
48P,3,DASAMAHAN,SAYANI/AYNAVARAM,48P-SAYANI/AYNAVARAM,48P-DASAMAHAN
48P,4,SAYANI/AYNAVARAM,KAMABAR ARANGAM,48P-KAMABAR ARANGAM,48P-SAYANI/AYNAVARAM
48P,5,KAMABAR ARANGAM,NATHAMUNI TALKIES,48P-NATHAMUNI TALKIES,48P-KAMABAR ARANGAM
48P,6,NATHAMUNI TALKIES,LUCAS TVS,48P-LUCAS TVS,48P-NATHAMUNI TALKIES
48P,7,LUCAS TVS,AMBATTUR I.E.,48P-AMBATTUR I.E.,48P-LUCAS TVS
48P,8,AMBATTUR I.E.,DUNLOP,DUNLOP,48P-AMBATTUR I.E.
48P,9,DUNLOP,AMBATTUR O.T.,48P-AMBATTUR O.T.,DUNLOP
48P,10,AMBATTUR O.T.,PUDUR,48P-PUDUR,48P-AMBATTUR O.T.
48P,11,PUDUR,KALLIKUPPAM,48P-KALLIKUPPAM,48P-PUDUR
48P,12,KALLIKUPPAM,SURAPEDU,48P-SURAPEDU,48P-KALLIKUPPAM
48P,13,SURAPEDU,PUTHAGARAM,48P-PUTHAGARAM,48P-SURAPEDU
48P,14,PUTHAGARAM,48P,48P,48P-PUTHAGARAM
572K,1,AMBATTUR I.E.,DUNLOP,DUNLOP,572K-AMBATTUR I.E.
572K,2,DUNLOP,AMBATTUR O.T.,572K-AMBATTUR O.T.,DUNLOP
572K,3,AMBATTUR O.T.,THIRUMULLAIVOYAL,572K-THIRUMULLAIVOYAL,572K-AMBATTUR O.T.
572K,4,THIRUMULLAIVOYAL,POLYTECHNIC,572K-POLYTECHNIC,572K-THIRUMULLAIVOYAL
572K,5,POLYTECHNIC,AVADI,572K-AVADI,572K-POLYTECHNIC
572K,6,AVADI,KAVARAIPALAYAM,572K-KAVARAIPALAYAM,572K-AVADI
572K,7,KAVARAIPALAYAM,PATTABIRAM,572K-PATTABIRAM,572K-KAVARAIPALAYAM
572K,8,PATTABIRAM,NEMILICHERI,572K-NEMILICHERI,572K-PATTABIRAM
572K,9,NEMILICHERI,THIRUNINDRAVOOR,572K-THIRUNINDRAVOOR,572K-NEMILICHERI
572K,10,THIRUNINDRAVOOR,VEPPUMPATTU PULIYAMARAM,572K-VEPPUMPATTU PULIYAMARAM,572K-THIRUNINDRAVOOR
572K,11,VEPPUMPATTU PULIYAMARAM,PERUMALPATTU,572K-PERUMALPATTU,572K-VEPPUMPATTU PULIYAMARAM
572K,12,PERUMALPATTU,KANDAN KOLLAI,572K-KANDAN KOLLAI,572K-PERUMALPATTU
572K,13,KANDAN KOLLAI,CHEVVAIPETTAI R.S.,572K-CHEVVAIPETTAI R.S.,572K-KANDAN KOLLAI
572K,14,CHEVVAIPETTAI R.S.,VELLAKULAM JN.,572K-VELLAKULAM JN.,572K-CHEVVAIPETTAI R.S.
572K,15,VELLAKULAM JN.,THANDALAM,572K-THANDALAM,572K-VELLAKULAM JN.
572K,16,THANDALAM,KALYANAKUPPAM,572K-KALYANAKUPPAM,572K-THANDALAM
572K,17,KALYANAKUPPAM,CHITHATHUR COLONY,572K-CHITHATHUR COLONY,572K-KALYANAKUPPAM
572K,18,CHITHATHUR COLONY,PERATHUR,572K-PERATHUR,572K-CHITHATHUR COLONY
572K,19,PERATHUR,PERATHUR COLONY,572K-PERATHUR COLONY,572K-PERATHUR
572K,20,PERATHUR COLONY,VISHNUVAKKAM,572K-VISHNUVAKKAM,572K-PERATHUR COLONY
572K,21,VISHNUVAKKAM,KIZHANOOR,572K-KIZHANOOR,572K-VISHNUVAKKAM
572K,22,KIZHANOOR,572K,572K,572K-KIZHANOOR
62A,1,REDHILLS,AAYURVEDA ASHRAMAM,62A-AAYURVEDA ASHRAMAM,62A-REDHILLS
62A,2,AAYURVEDA ASHRAMAM,KAVANGARAI,62A-KAVANGARAI,62A-AAYURVEDA ASHRAMAM
62A,3,KAVANGARAI,SCREW FACTORY,62A-SCREW FACTORY,62A-KAVANGARAI
62A,4,SCREW FACTORY,SURAPEDU,62A-SURAPEDU,62A-SCREW FACTORY
62A,5,SURAPEDU,KALLIKUPPAM,62A-KALLIKUPPAM,62A-SURAPEDU
62A,6,KALLIKUPPAM,PUDUR,62A-PUDUR,62A-KALLIKUPPAM
62A,7,PUDUR,AMBATTUR O.T.,62A-AMBATTUR O.T.,62A-PUDUR
62A,8,AMBATTUR O.T.,DUNLOP,DUNLOP,62A-AMBATTUR O.T.
62A,9,DUNLOP,AMBATTUR I.E.,62A-AMBATTUR I.E.,DUNLOP
62A,10,AMBATTUR I.E.,62A,62A,62A-AMBATTUR I.E.
62B,1,J.J.NAGAR WEST,AMBATTUR I.E.,62B-AMBATTUR I.E.,62B-J.J.NAGAR WEST
62B,2,AMBATTUR I.E.,DUNLOP,DUNLOP,62B-AMBATTUR I.E.
62B,3,DUNLOP,AMBATTUR O.T.,62B-AMBATTUR O.T.,DUNLOP
62B,4,AMBATTUR O.T.,THIRUMULLAIVOYAL,62B-THIRUMULLAIVOYAL,62B-AMBATTUR O.T.
62B,5,THIRUMULLAIVOYAL,TEMPLE JN.,62B-TEMPLE JN.,62B-THIRUMULLAIVOYAL
62B,6,TEMPLE JN.,KARISHMA NAGAR WATER BRG,62B-KARISHMA NAGAR WATER BRG,62B-TEMPLE JN.
62B,7,KARISHMA NAGAR WATER BRG,UPPARA PALAYAM,62B-UPPARA PALAYAM,62B-KARISHMA NAGAR WATER BRG
62B,8,UPPARA PALAYAM,POTHUR,62B-POTHUR,62B-UPPARA PALAYAM
62B,9,POTHUR,PAMMADUKULAM,62B-PAMMADUKULAM,62B-POTHUR
62B,10,PAMMADUKULAM,IRANKUPPAM,62B-IRANKUPPAM,62B-PAMMADUKULAM
62B,11,IRANKUPPAM,PAMMADUKULAM COLONY,62B-PAMMADUKULAM COLONY,62B-IRANKUPPAM
62B,12,PAMMADUKULAM COLONY,KARIMEDU,62B-KARIMEDU,62B-PAMMADUKULAM COLONY
62B,13,KARIMEDU,PAMMADUKULAM COLONY,62B-PAMMADUKULAM COLONY,62B-KARIMEDU
62B,14,PAMMADUKULAM COLONY,REDHILLS,62B-REDHILLS,62B-PAMMADUKULAM COLONY
62B,15,REDHILLS,62B,62B,62B-REDHILLS
63,1,VILLIVAKKAM,NATHAMUNI TALKIES,63-NATHAMUNI TALKIES,63-VILLIVAKKAM
63,2,NATHAMUNI TALKIES,LUCAS TVS,63-LUCAS TVS,63-NATHAMUNI TALKIES
63,3,LUCAS TVS,AMBATTUR I.E.,63-AMBATTUR I.E.,63-LUCAS TVS
63,4,AMBATTUR I.E.,DUNLOP,DUNLOP,63-AMBATTUR I.E.
63,5,DUNLOP,AYYAPPA NAGAR,63-AYYAPPA NAGAR,DUNLOP
63,6,AYYAPPA NAGAR,2ND WATER TANK ON SECOND AVE.,63-2ND WATER TANK ON SECOND AVE.,63-AYYAPPA NAGAR
63,7,2ND WATER TANK ON SECOND AVE.,KONIMEDU RD. JN.,63-KONIMEDU RD. JN.,63-2ND WATER TANK ON SECOND AVE.
63,8,KONIMEDU RD. JN.,KOLADI SCHOOL,63-KOLADI SCHOOL,63-KONIMEDU RD. JN.
63,9,KOLADI SCHOOL,THIRUVERKADU,63-THIRUVERKADU,63-KOLADI SCHOOL
63,10,THIRUVERKADU,63,63,63-THIRUVERKADU
63CT,1,AMBATTUR I.E.,DUNLOP,DUNLOP,63CT-AMBATTUR I.E.
63CT,2,DUNLOP,AYYAPPA NAGAR,63CT-AYYAPPA NAGAR,DUNLOP
63CT,3,AYYAPPA NAGAR,2ND WATER TANK ON SECOND AVE.,63CT-2ND WATER TANK ON SECOND AVE.,63CT-AYYAPPA NAGAR
63CT,4,2ND WATER TANK ON SECOND AVE.,KONEMEDU JN.,63CT-KONEMEDU JN.,63CT-2ND WATER TANK ON SECOND AVE.
63CT,5,KONEMEDU JN.,KOLADI SCHOOL,63CT-KOLADI SCHOOL,63CT-KONEMEDU JN.
63CT,6,KOLADI SCHOOL,THIRUVERKADU,63CT-THIRUVERKADU,63CT-KOLADI SCHOOL
63CT,7,THIRUVERKADU,63CT,63CT,63CT-THIRUVERKADU
65B,1,POONAMALLEE,KARAYANCAHVADI,65B-KARAYANCAHVADI,65B-POONAMALLEE
65B,2,KARAYANCAHVADI,SENNEERKUPPAM,65B-SENNEERKUPPAM,65B-KARAYANCAHVADI
65B,3,SENNEERKUPPAM,MELPAKKAM,65B-MELPAKKAM,65B-SENNEERKUPPAM
65B,4,MELPAKKAM,GOVARDANAGIRI,65B-GOVARDANAGIRI,65B-MELPAKKAM
65B,5,GOVARDANAGIRI,AVADI MOSQUE,65B-AVADI MOSQUE,65B-GOVARDANAGIRI
65B,6,AVADI MOSQUE,AVADI CIRCLE,65B-AVADI CIRCLE,65B-AVADI MOSQUE
65B,7,AVADI CIRCLE,KOILPATHAGAI RD.JN.,65B-KOILPATHAGAI RD.JN.,65B-AVADI CIRCLE
65B,8,KOILPATHAGAI RD.JN.,POLYTECHNIC,65B-POLYTECHNIC,65B-KOILPATHAGAI RD.JN.
65B,9,POLYTECHNIC,THIRUMULLAIVOYAL,65B-THIRUMULLAIVOYAL,65B-POLYTECHNIC
65B,10,THIRUMULLAIVOYAL,AMBATTUR O.T.,65B-AMBATTUR O.T.,65B-THIRUMULLAIVOYAL
65B,11,AMBATTUR O.T.,DUNLOP,DUNLOP,65B-AMBATTUR O.T.
65B,12,DUNLOP,AMBATTUR I.E.,65B-AMBATTUR I.E.,DUNLOP
65B,13,AMBATTUR I.E.,65B,65B,65B-AMBATTUR I.E.
65CCT,1,AMBATTUR I.E.,DUNLOP,DUNLOP,65CCT-AMBATTUR I.E.
65CCT,2,DUNLOP,AMBATTUR O.T.,65CCT-AMBATTUR O.T.,DUNLOP
65CCT,3,AMBATTUR O.T.,THIRUMULLAIVOYAL,65CCT-THIRUMULLAIVOYAL,65CCT-AMBATTUR O.T.
65CCT,4,THIRUMULLAIVOYAL,POLYTECHNIC,65CCT-POLYTECHNIC,65CCT-THIRUMULLAIVOYAL
65CCT,5,POLYTECHNIC,AVADI CIRCLE,65CCT-AVADI CIRCLE,65CCT-POLYTECHNIC
65CCT,6,AVADI CIRCLE,KAVARAIPALAYAM,65CCT-KAVARAIPALAYAM,65CCT-AVADI CIRCLE
65CCT,7,KAVARAIPALAYAM,PATTABIRAM,65CCT-PATTABIRAM,65CCT-KAVARAIPALAYAM
65CCT,8,PATTABIRAM,NEMILICHERI,65CCT-NEMILICHERI,65CCT-PATTABIRAM
65CCT,9,NEMILICHERI,THIRUNINDRAVOOR,65CCT-THIRUNINDRAVOOR,65CCT-NEMILICHERI
65CCT,10,THIRUNINDRAVOOR,NASIC NAGAR,65CCT-NASIC NAGAR,65CCT-THIRUNINDRAVOOR
65CCT,11,NASIC NAGAR,PAKKAM VILLAGE,65CCT-PAKKAM VILLAGE,65CCT-NASIC NAGAR
65CCT,12,PAKKAM VILLAGE,65CCT,65CCT,65CCT-PAKKAM VILLAGE
70,1,AVADI,POLYTECHNIC,70-POLYTECHNIC,70-AVADI
70,2,POLYTECHNIC,THIRUMULLAIVOYAL,70-THIRUMULLAIVOYAL,70-POLYTECHNIC
70,3,THIRUMULLAIVOYAL,AMBATTUR O.T.,70-AMBATTUR O.T.,70-THIRUMULLAIVOYAL
70,4,AMBATTUR O.T.,DUNLOP,DUNLOP,70-AMBATTUR O.T.
70,5,DUNLOP,AMBATTUR I.E.,70-AMBATTUR I.E.,DUNLOP
70,6,AMBATTUR I.E.,LUCAS TVS,70-LUCAS TVS,70-AMBATTUR I.E.
70,7,LUCAS TVS,THIRUMANGALAM,70-THIRUMANGALAM,70-LUCAS TVS
70,8,THIRUMANGALAM,KOYAMBEDU,70-KOYAMBEDU,70-THIRUMANGALAM
70,9,KOYAMBEDU,M.M.D.A.COLONY RD.JN.,70-M.M.D.A.COLONY RD.JN.,70-KOYAMBEDU
70,10,M.M.D.A.COLONY RD.JN.,JN OF III AND 1ST AVE,70-JN OF III AND 1ST AVE,70-M.M.D.A.COLONY RD.JN.
70,11,JN OF III AND 1ST AVE,JAFFARKHAN PET,70-JAFFARKHAN PET,70-JN OF III AND 1ST AVE
70,12,JAFFARKHAN PET,CIPET,70-CIPET,70-JAFFARKHAN PET
70,13,CIPET,ST THOMAS MOUNT PO,70-ST THOMAS MOUNT PO,70-CIPET
70,14,ST THOMAS MOUNT PO,MEENAMABAKKAM OLD AIRPORT,70-MEENAMABAKKAM OLD AIRPORT,70-ST THOMAS MOUNT PO
70,15,MEENAMABAKKAM OLD AIRPORT,THIRUSOOLAM NATIONAL AIRPORT,70-THIRUSOOLAM NATIONAL AIRPORT,70-MEENAMABAKKAM OLD AIRPORT
70,16,THIRUSOOLAM NATIONAL AIRPORT,PALLAVARAM,70-PALLAVARAM,70-THIRUSOOLAM NATIONAL AIRPORT
70,17,PALLAVARAM,CHROMEPET,70-CHROMEPET,70-PALLAVARAM
70,18,CHROMEPET,T.B.SANATORIUM,70-T.B.SANATORIUM,70-CHROMEPET
70,19,T.B.SANATORIUM,TAMBARAM,70-TAMBARAM,70-T.B.SANATORIUM
70,20,TAMBARAM,70,70,70-TAMBARAM
70A,1,AVADI,POLYTECHNIC,70A-POLYTECHNIC,70A-AVADI
70A,2,POLYTECHNIC,THIRUMULLAIVOYAL,70A-THIRUMULLAIVOYAL,70A-POLYTECHNIC
70A,3,THIRUMULLAIVOYAL,AMBATTUR O.T.,70A-AMBATTUR O.T.,70A-THIRUMULLAIVOYAL
70A,4,AMBATTUR O.T.,DUNLOP,DUNLOP,70A-AMBATTUR O.T.
70A,5,DUNLOP,AMBATTUR I.E.,70A-AMBATTUR I.E.,DUNLOP
70A,6,AMBATTUR I.E.,LUCAS TVS,70A-LUCAS TVS,70A-AMBATTUR I.E.
70A,7,LUCAS TVS,THIRUMANGALAM,70A-THIRUMANGALAM,70A-LUCAS TVS
70A,8,THIRUMANGALAM,KOYAMBEDU SCHOOL,70A-KOYAMBEDU SCHOOL,70A-THIRUMANGALAM
70A,9,KOYAMBEDU SCHOOL,M.G.R.KOYAMBEDU,70A-M.G.R.KOYAMBEDU,70A-KOYAMBEDU SCHOOL
70A,10,M.G.R.KOYAMBEDU,70A,70A,70A-M.G.R.KOYAMBEDU
70ACT,1,AVADI,POLYTECHNIC,70ACT-POLYTECHNIC,70ACT-AVADI
70ACT,2,POLYTECHNIC,THIRUMULLAIVOYAL,70ACT-THIRUMULLAIVOYAL,70ACT-POLYTECHNIC
70ACT,3,THIRUMULLAIVOYAL,AMBATTUR O.T.,70ACT-AMBATTUR O.T.,70ACT-THIRUMULLAIVOYAL
70ACT,4,AMBATTUR O.T.,DUNLOP,DUNLOP,70ACT-AMBATTUR O.T.
70ACT,5,DUNLOP,AMBATTUR I.E.,70ACT-AMBATTUR I.E.,DUNLOP
70ACT,6,AMBATTUR I.E.,LUCAS TVS,70ACT-LUCAS TVS,70ACT-AMBATTUR I.E.
70ACT,7,LUCAS TVS,THIRUMANGALAM,70ACT-THIRUMANGALAM,70ACT-LUCAS TVS
70ACT,8,THIRUMANGALAM,KOYAMBEDU SCHOOL,70ACT-KOYAMBEDU SCHOOL,70ACT-THIRUMANGALAM
70ACT,9,KOYAMBEDU SCHOOL,M.G.R.KOYAMBEDU,70ACT-M.G.R.KOYAMBEDU,70ACT-KOYAMBEDU SCHOOL
70ACT,10,M.G.R.KOYAMBEDU,70ACT,70ACT,70ACT-M.G.R.KOYAMBEDU
70K,1,AVADI,POLYTECHNIC,70K-POLYTECHNIC,70K-AVADI
70K,2,POLYTECHNIC,THIRUMULLAIVOYAL,70K-THIRUMULLAIVOYAL,70K-POLYTECHNIC
70K,3,THIRUMULLAIVOYAL,AMBATTUR O.T.,70K-AMBATTUR O.T.,70K-THIRUMULLAIVOYAL
70K,4,AMBATTUR O.T.,DUNLOP,DUNLOP,70K-AMBATTUR O.T.
70K,5,DUNLOP,AMBATTUR I.E.,70K-AMBATTUR I.E.,DUNLOP
70K,6,AMBATTUR I.E.,LUCAS TVS,70K-LUCAS TVS,70K-AMBATTUR I.E.
70K,7,LUCAS TVS,THIRUMANGALAM,70K-THIRUMANGALAM,70K-LUCAS TVS
70K,8,THIRUMANGALAM,KOYAMBEDU,70K-KOYAMBEDU,70K-THIRUMANGALAM
70K,9,KOYAMBEDU,M.M.D.A.COLONY RD.JN.,70K-M.M.D.A.COLONY RD.JN.,70K-KOYAMBEDU
70K,10,M.M.D.A.COLONY RD.JN.,JN OF III AND 1ST AVE,70K-JN OF III AND 1ST AVE,70K-M.M.D.A.COLONY RD.JN.
70K,11,JN OF III AND 1ST AVE,JAFFARKHAN PET,70K-JAFFARKHAN PET,70K-JN OF III AND 1ST AVE
70K,12,JAFFARKHAN PET,CIPET,70K-CIPET,70K-JAFFARKHAN PET
70K,13,CIPET,ST THOMAS MOUNT PO,70K-ST THOMAS MOUNT PO,70K-CIPET
70K,14,ST THOMAS MOUNT PO,MEENAMABAKKAM OLD AIRPORT,70K-MEENAMABAKKAM OLD AIRPORT,70K-ST THOMAS MOUNT PO
70K,15,MEENAMABAKKAM OLD AIRPORT,THIRUSOOLAM NATIONAL AIRPORT,70K-THIRUSOOLAM NATIONAL AIRPORT,70K-MEENAMABAKKAM OLD AIRPORT
70K,16,THIRUSOOLAM NATIONAL AIRPORT,PALLAVARAM,70K-PALLAVARAM,70K-THIRUSOOLAM NATIONAL AIRPORT
70K,17,PALLAVARAM,CHROMEPET,70K-CHROMEPET,70K-PALLAVARAM
70K,18,CHROMEPET,T.B.SANATORIUM,70K-T.B.SANATORIUM,70K-CHROMEPET
70K,19,T.B.SANATORIUM,TAMBARAM,70K-TAMBARAM,70K-T.B.SANATORIUM
70K,20,TAMBARAM,IRUMBULIYUR,70K-IRUMBULIYUR,70K-TAMBARAM
70K,21,IRUMBULIYUR,PERUNGALATHUR,70K-PERUNGALATHUR,70K-IRUMBULIYUR
70K,22,PERUNGALATHUR,VANDALUR GATE,70K-VANDALUR GATE,70K-PERUNGALATHUR
70K,23,VANDALUR GATE,VANDALUR ZOO,70K-VANDALUR ZOO,70K-VANDALUR GATE
70K,24,VANDALUR ZOO,KILAMBAKKAM B.S.,70K-KILAMBAKKAM B.S.,70K-VANDALUR ZOO
70K,25,KILAMBAKKAM B.S.,70K,70K,70K-KILAMBAKKAM B.S.
71D,1,BROADWAY,M.G.R.CENTRAL,71D-M.G.R.CENTRAL,71D-BROADWAY
71D,2,M.G.R.CENTRAL,DASAPRAKASH,71D-DASAPRAKASH,71D-M.G.R.CENTRAL
71D,3,DASAPRAKASH,TAYLORS ROAD,71D-TAYLORS ROAD,71D-DASAPRAKASH
71D,4,TAYLORS ROAD,KILPAUK GARDEN,71D-KILPAUK GARDEN,71D-TAYLORS ROAD
71D,5,KILPAUK GARDEN,ICF ANNEXE,71D-ICF ANNEXE,71D-KILPAUK GARDEN
71D,6,ICF ANNEXE,NATHAMUNI TALKIES,71D-NATHAMUNI TALKIES,71D-ICF ANNEXE
71D,7,NATHAMUNI TALKIES,LUCAS TVS,71D-LUCAS TVS,71D-NATHAMUNI TALKIES
71D,8,LUCAS TVS,AMBATTUR I.E.,71D-AMBATTUR I.E.,71D-LUCAS TVS
71D,9,AMBATTUR I.E.,DUNLOP,DUNLOP,71D-AMBATTUR I.E.
71D,10,DUNLOP,AMBATTUR O.T.,71D-AMBATTUR O.T.,DUNLOP
71D,11,AMBATTUR O.T.,PUDUR,71D-PUDUR,71D-AMBATTUR O.T.
71D,12,PUDUR,71D,71D,71D-PUDUR
71E,1,BROADWAY,M.G.R.CENTRAL,71E-M.G.R.CENTRAL,71E-BROADWAY
71E,2,M.G.R.CENTRAL,DASAPRAKASH,71E-DASAPRAKASH,71E-M.G.R.CENTRAL
71E,3,DASAPRAKASH,TAYLORS ROAD,71E-TAYLORS ROAD,71E-DASAPRAKASH
71E,4,TAYLORS ROAD,KILPAUK GARDEN,71E-KILPAUK GARDEN,71E-TAYLORS ROAD
71E,5,KILPAUK GARDEN,ICF ANNEXE,71E-ICF ANNEXE,71E-KILPAUK GARDEN
71E,6,ICF ANNEXE,NATHAMUNI TALKIES,71E-NATHAMUNI TALKIES,71E-ICF ANNEXE
71E,7,NATHAMUNI TALKIES,LUCAS TVS,71E-LUCAS TVS,71E-NATHAMUNI TALKIES
71E,8,LUCAS TVS,AMBATTUR I.E.,71E-AMBATTUR I.E.,71E-LUCAS TVS
71E,9,AMBATTUR I.E.,DUNLOP,DUNLOP,71E-AMBATTUR I.E.
71E,10,DUNLOP,AMBATTUR O.T.,71E-AMBATTUR O.T.,DUNLOP
71E,11,AMBATTUR O.T.,THIRUMULLAIVOYAL,71E-THIRUMULLAIVOYAL,71E-AMBATTUR O.T.
71E,12,THIRUMULLAIVOYAL,POLYTECHNIC,71E-POLYTECHNIC,71E-THIRUMULLAIVOYAL
71E,13,POLYTECHNIC,AVADI,71E-AVADI,71E-POLYTECHNIC
71E,14,AVADI,KAVARAIPALAYAM,71E-KAVARAIPALAYAM,71E-AVADI
71E,15,KAVARAIPALAYAM,PATTABIRAM,71E-PATTABIRAM,71E-KAVARAIPALAYAM
71E,16,PATTABIRAM,71E,71E,71E-PATTABIRAM
71EX,1,BROADWAY,M.G.R.CENTRAL,71EX-M.G.R.CENTRAL,71EX-BROADWAY
71EX,2,M.G.R.CENTRAL,DASAPRAKASH,71EX-DASAPRAKASH,71EX-M.G.R.CENTRAL
71EX,3,DASAPRAKASH,TAYLORS ROAD,71EX-TAYLORS ROAD,71EX-DASAPRAKASH
71EX,4,TAYLORS ROAD,KILPAUK GARDEN,71EX-KILPAUK GARDEN,71EX-TAYLORS ROAD
71EX,5,KILPAUK GARDEN,ICF ANNEXE,71EX-ICF ANNEXE,71EX-KILPAUK GARDEN
71EX,6,ICF ANNEXE,NATHAMUNI TALKIES,71EX-NATHAMUNI TALKIES,71EX-ICF ANNEXE
71EX,7,NATHAMUNI TALKIES,LUCAS TVS,71EX-LUCAS TVS,71EX-NATHAMUNI TALKIES
71EX,8,LUCAS TVS,AMBATTUR I.E.,71EX-AMBATTUR I.E.,71EX-LUCAS TVS
71EX,9,AMBATTUR I.E.,DUNLOP,DUNLOP,71EX-AMBATTUR I.E.
71EX,10,DUNLOP,AMBATTUR O.T.,71EX-AMBATTUR O.T.,DUNLOP
71EX,11,AMBATTUR O.T.,THIRUMULLAIVOYAL,71EX-THIRUMULLAIVOYAL,71EX-AMBATTUR O.T.
71EX,12,THIRUMULLAIVOYAL,POLYTECHNIC,71EX-POLYTECHNIC,71EX-THIRUMULLAIVOYAL
71EX,13,POLYTECHNIC,AVADI,71EX-AVADI,71EX-POLYTECHNIC
71EX,14,AVADI,KAVARAIPALAYAM,71EX-KAVARAIPALAYAM,71EX-AVADI
71EX,15,KAVARAIPALAYAM,PATTABIRAM,71EX-PATTABIRAM,71EX-KAVARAIPALAYAM
71EX,16,PATTABIRAM,ANAIKATTUCHERY(DIV STAGE),71EX-ANAIKATTUCHERY(DIV STAGE),71EX-PATTABIRAM
71EX,17,ANAIKATTUCHERY(DIV STAGE),CHITHAKADU (DIV STAGE),71EX-CHITHAKADU (DIV STAGE),71EX-ANAIKATTUCHERY(DIV STAGE)
71EX,18,CHITHAKADU (DIV STAGE),NEMILICHERI,71EX-NEMILICHERI,71EX-CHITHAKADU (DIV STAGE)
71EX,19,NEMILICHERI,THIRUNINDRAVOOR,71EX-THIRUNINDRAVOOR,71EX-NEMILICHERI
71EX,20,THIRUNINDRAVOOR,71EX,71EX,71EX-THIRUNINDRAVOOR
71H,1,BROADWAY,M.G.R.CENTRAL,71H-M.G.R.CENTRAL,71H-BROADWAY
71H,2,M.G.R.CENTRAL,DASAPRAKASH,71H-DASAPRAKASH,71H-M.G.R.CENTRAL
71H,3,DASAPRAKASH,TAYLORS ROAD,71H-TAYLORS ROAD,71H-DASAPRAKASH
71H,4,TAYLORS ROAD,KILPAUK GARDEN,71H-KILPAUK GARDEN,71H-TAYLORS ROAD
71H,5,KILPAUK GARDEN,ICF ANNEXE,71H-ICF ANNEXE,71H-KILPAUK GARDEN
71H,6,ICF ANNEXE,NATHAMUNI TALKIES,71H-NATHAMUNI TALKIES,71H-ICF ANNEXE
71H,7,NATHAMUNI TALKIES,LUCAS TVS,71H-LUCAS TVS,71H-NATHAMUNI TALKIES
71H,8,LUCAS TVS,AMBATTUR I.E.,71H-AMBATTUR I.E.,71H-LUCAS TVS
71H,9,AMBATTUR I.E.,DUNLOP,DUNLOP,71H-AMBATTUR I.E.
71H,10,DUNLOP,AMBATTUR O.T.,71H-AMBATTUR O.T.,DUNLOP
71H,11,AMBATTUR O.T.,THIRUMULLAIVOYAL,71H-THIRUMULLAIVOYAL,71H-AMBATTUR O.T.
71H,12,THIRUMULLAIVOYAL,POLYTECHNIC,71H-POLYTECHNIC,71H-THIRUMULLAIVOYAL
71H,13,POLYTECHNIC,AVADI CIRCLE,71H-AVADI CIRCLE,71H-POLYTECHNIC
71H,14,AVADI CIRCLE,VILINJAMBAKKAM AMMAN KOIL,71H-VILINJAMBAKKAM AMMAN KOIL,71H-AVADI CIRCLE
71H,15,VILINJAMBAKKAM AMMAN KOIL,KAMARAJ NAGAR,71H-KAMARAJ NAGAR,71H-VILINJAMBAKKAM AMMAN KOIL
71H,16,KAMARAJ NAGAR,71H,71H,71H-KAMARAJ NAGAR
71V,1,BROADWAY,M.G.R.CENTRAL,71V-M.G.R.CENTRAL,71V-BROADWAY
71V,2,M.G.R.CENTRAL,DASAPRAKASH,71V-DASAPRAKASH,71V-M.G.R.CENTRAL
71V,3,DASAPRAKASH,TAYLORS ROAD,71V-TAYLORS ROAD,71V-DASAPRAKASH
71V,4,TAYLORS ROAD,KILPAUK GARDEN,71V-KILPAUK GARDEN,71V-TAYLORS ROAD
71V,5,KILPAUK GARDEN,ICF ANNEXE,71V-ICF ANNEXE,71V-KILPAUK GARDEN
71V,6,ICF ANNEXE,NATHAMUNI TALKIES,71V-NATHAMUNI TALKIES,71V-ICF ANNEXE
71V,7,NATHAMUNI TALKIES,LUCAS TVS,71V-LUCAS TVS,71V-NATHAMUNI TALKIES
71V,8,LUCAS TVS,AMBATTUR I.E.,71V-AMBATTUR I.E.,71V-LUCAS TVS
71V,9,AMBATTUR I.E.,DUNLOP,DUNLOP,71V-AMBATTUR I.E.
71V,10,DUNLOP,AMBATTUR O.T.,71V-AMBATTUR O.T.,DUNLOP
71V,11,AMBATTUR O.T.,THIRUMULLAIVOYAL,71V-THIRUMULLAIVOYAL,71V-AMBATTUR O.T.
71V,12,THIRUMULLAIVOYAL,POLYTECHNIC,71V-POLYTECHNIC,71V-THIRUMULLAIVOYAL
71V,13,POLYTECHNIC,AVADI,71V-AVADI,71V-POLYTECHNIC
71V,14,AVADI,KAVARAIPALAYAM,71V-KAVARAIPALAYAM,71V-AVADI
71V,15,KAVARAIPALAYAM,PATTABIRAM,71V-PATTABIRAM,71V-KAVARAIPALAYAM
71V,16,PATTABIRAM,NEMILICHERI,71V-NEMILICHERI,71V-PATTABIRAM
71V,17,NEMILICHERI,THIRUNINDRAVOOR,71V-THIRUNINDRAVOOR,71V-NEMILICHERI
71V,18,THIRUNINDRAVOOR,VEPPUMPATTU PULIYAMARAM,71V-VEPPUMPATTU PULIYAMARAM,71V-THIRUNINDRAVOOR
71V,19,VEPPUMPATTU PULIYAMARAM,VEPPAMPATTU E.WARAN NAGAR,71V-VEPPAMPATTU E.WARAN NAGAR,71V-VEPPUMPATTU PULIYAMARAM
71V,20,VEPPAMPATTU E.WARAN NAGAR,71V,71V,71V-VEPPAMPATTU E.WARAN NAGAR
73,1,AVADI,POLYTECHNIC,73-POLYTECHNIC,73-AVADI
73,2,POLYTECHNIC,THIRUMULLAIVOYAL,73-THIRUMULLAIVOYAL,73-POLYTECHNIC
73,3,THIRUMULLAIVOYAL,AMBATTUR O.T.,73-AMBATTUR O.T.,73-THIRUMULLAIVOYAL
73,4,AMBATTUR O.T.,DUNLOP,DUNLOP,73-AMBATTUR O.T.
73,5,DUNLOP,ATHIPATTU KRISHANER KOIL,73-ATHIPATTU KRISHANER KOIL,DUNLOP
73,6,ATHIPATTU KRISHANER KOIL,THREE STATUE (AYANAMBAKKAM),73-THREE STATUE (AYANAMBAKKAM),73-ATHIPATTU KRISHANER KOIL
73,7,THREE STATUE (AYANAMBAKKAM),VAANAGARAM,73-VAANAGARAM,73-THREE STATUE (AYANAMBAKKAM)
73,8,VAANAGARAM,MADURAVOYAL,73-MADURAVOYAL,73-VAANAGARAM
73,9,MADURAVOYAL,NERKUNDRAM,73-NERKUNDRAM,73-MADURAVOYAL
73,10,NERKUNDRAM,M.G.R.KOYAMBEDU,73-M.G.R.KOYAMBEDU,73-NERKUNDRAM
73,11,M.G.R.KOYAMBEDU,73,73,73-M.G.R.KOYAMBEDU
73C,1,AMBATTUR I.E.,DUNLOP,DUNLOP,73C-AMBATTUR I.E.
73C,2,DUNLOP,AYYAPPA NAGAR,73C-AYYAPPA NAGAR,DUNLOP
73C,3,AYYAPPA NAGAR,AYAPPAKKAM,73C-AYAPPAKKAM,73C-AYYAPPA NAGAR
73C,4,AYAPPAKKAM,73C,73C,73C-AYAPPAKKAM
73CT,1,AMBATTUR I.E.,DUNLOP,DUNLOP,73CT-AMBATTUR I.E.
73CT,2,DUNLOP,AYYAPPA NAGAR,73CT-AYYAPPA NAGAR,DUNLOP
73CT,3,AYYAPPA NAGAR,AYAPPAKKAM TNHB,73CT-AYAPPAKKAM TNHB,73CT-AYYAPPA NAGAR
73CT,4,AYAPPAKKAM TNHB,73CT,73CT,73CT-AYAPPAKKAM TNHB
77,1,AVADI,POLYTECHNIC,77-POLYTECHNIC,77-AVADI
77,2,POLYTECHNIC,THIRUMULLAIVOYAL,77-THIRUMULLAIVOYAL,77-POLYTECHNIC
77,3,THIRUMULLAIVOYAL,AMBATTUR O.T.,77-AMBATTUR O.T.,77-THIRUMULLAIVOYAL
77,4,AMBATTUR O.T.,DUNLOP,DUNLOP,77-AMBATTUR O.T.
77,5,DUNLOP,AMBATTUR I.E.,77-AMBATTUR I.E.,DUNLOP
77,6,AMBATTUR I.E.,GOLDEN FLAT,77-GOLDEN FLAT,77-AMBATTUR I.E.
77,7,GOLDEN FLAT,THIRUMANGALAM,77-THIRUMANGALAM,77-GOLDEN FLAT
77,8,THIRUMANGALAM,KOYAMBEDU SCHOOL,77-KOYAMBEDU SCHOOL,77-THIRUMANGALAM
77,9,KOYAMBEDU SCHOOL,M.G.R.KOYAMBEDU,77-M.G.R.KOYAMBEDU,77-KOYAMBEDU SCHOOL
77,10,M.G.R.KOYAMBEDU,77,77,77-M.G.R.KOYAMBEDU
77A,1,M.G.R.KOYAMBEDU,KOYAMBEDU SCHOOL,77A-KOYAMBEDU SCHOOL,77A-M.G.R.KOYAMBEDU
77A,2,KOYAMBEDU SCHOOL,THIRUMANGALAM,77A-THIRUMANGALAM,77A-KOYAMBEDU SCHOOL
77A,3,THIRUMANGALAM,MOGAIPAIR ROAD JN.,77A-MOGAIPAIR ROAD JN.,77A-THIRUMANGALAM
77A,4,MOGAIPAIR ROAD JN.,AMBATTUR I.E.,77A-AMBATTUR I.E.,77A-MOGAIPAIR ROAD JN.
77A,5,AMBATTUR I.E.,DUNLOP,DUNLOP,77A-AMBATTUR I.E.
77A,6,DUNLOP,AYYAPPA NAGAR,77A-AYYAPPA NAGAR,DUNLOP
77A,7,AYYAPPA NAGAR,2ND WATER TANK ON SECOND AVE.,77A-2ND WATER TANK ON SECOND AVE.,77A-AYYAPPA NAGAR
77A,8,2ND WATER TANK ON SECOND AVE.,AYAPPAKKAM,77A-AYAPPAKKAM,77A-2ND WATER TANK ON SECOND AVE.
77A,9,AYAPPAKKAM,77A,77A,77A-AYAPPAKKAM
77B,1,M.G.R.KOYAMBEDU,KOYAMBEDU SCHOOL,77B-KOYAMBEDU SCHOOL,77B-M.G.R.KOYAMBEDU
77B,2,KOYAMBEDU SCHOOL,THIRUMANGALAM,77B-THIRUMANGALAM,77B-KOYAMBEDU SCHOOL
77B,3,THIRUMANGALAM,GOLDEN FLAT,77B-GOLDEN FLAT,77B-THIRUMANGALAM
77B,4,GOLDEN FLAT,AMBATTUR I.E.,77B-AMBATTUR I.E.,77B-GOLDEN FLAT
77B,5,AMBATTUR I.E.,DUNLOP,DUNLOP,77B-AMBATTUR I.E.
77B,6,DUNLOP,AMBATTUR O.T.,77B-AMBATTUR O.T.,DUNLOP
77B,7,AMBATTUR O.T.,ORAGADAM O.T.,77B-ORAGADAM O.T.,77B-AMBATTUR O.T.
77B,8,ORAGADAM O.T.,ORAGADAM,77B-ORAGADAM,77B-ORAGADAM O.T.
77B,9,ORAGADAM,77B,77B,77B-ORAGADAM
77CT,1,M.G.R.KOYAMBEDU,KOYAMBEDU SCHOOL,77CT-KOYAMBEDU SCHOOL,77CT-M.G.R.KOYAMBEDU
77CT,2,KOYAMBEDU SCHOOL,THIRUMANGALAM,77CT-THIRUMANGALAM,77CT-KOYAMBEDU SCHOOL
77CT,3,THIRUMANGALAM,GOLDEN FLAT,77CT-GOLDEN FLAT,77CT-THIRUMANGALAM
77CT,4,GOLDEN FLAT,AMBATTUR I.E.,77CT-AMBATTUR I.E.,77CT-GOLDEN FLAT
77CT,5,AMBATTUR I.E.,DUNLOP,DUNLOP,77CT-AMBATTUR I.E.
77CT,6,DUNLOP,AMBATTUR O.T.,77CT-AMBATTUR O.T.,DUNLOP
77CT,7,AMBATTUR O.T.,THIRUMULLAIVOYAL,77CT-THIRUMULLAIVOYAL,77CT-AMBATTUR O.T.
77CT,8,THIRUMULLAIVOYAL,VINAYAGAR KOIL,77CT-VINAYAGAR KOIL,77CT-THIRUMULLAIVOYAL
77CT,9,VINAYAGAR KOIL,VENKATACHALAM NAGAR,77CT-VENKATACHALAM NAGAR,77CT-VINAYAGAR KOIL
77CT,10,VENKATACHALAM NAGAR,77CT,77CT,77CT-VENKATACHALAM NAGAR
77E,1,M.G.R.KOYAMBEDU,KOYAMBEDU SCHOOL,77E-KOYAMBEDU SCHOOL,77E-M.G.R.KOYAMBEDU
77E,2,KOYAMBEDU SCHOOL,THIRUMANGALAM,77E-THIRUMANGALAM,77E-KOYAMBEDU SCHOOL
77E,3,THIRUMANGALAM,MOGAIPAIR ROAD JN.,77E-MOGAIPAIR ROAD JN.,77E-THIRUMANGALAM
77E,4,MOGAIPAIR ROAD JN.,AMBATTUR I.E.,77E-AMBATTUR I.E.,77E-MOGAIPAIR ROAD JN.
77E,5,AMBATTUR I.E.,DUNLOP,DUNLOP,77E-AMBATTUR I.E.
77E,6,DUNLOP,AMBATTUR O.T.,77E-AMBATTUR O.T.,DUNLOP
77E,7,AMBATTUR O.T.,THIRUMULLAIVOYAL,77E-THIRUMULLAIVOYAL,77E-AMBATTUR O.T.
77E,8,THIRUMULLAIVOYAL,POLYTECHNIC,77E-POLYTECHNIC,77E-THIRUMULLAIVOYAL
77E,9,POLYTECHNIC,AVADI CIRCLE,77E-AVADI CIRCLE,77E-POLYTECHNIC
77E,10,AVADI CIRCLE,KOILPATHAGAI RD.JN.,77E-KOILPATHAGAI RD.JN.,77E-AVADI CIRCLE
77E,11,KOILPATHAGAI RD.JN.,H.V.F.MAIN GATE,77E-H.V.F.MAIN GATE,77E-KOILPATHAGAI RD.JN.
77E,12,H.V.F.MAIN GATE,C.R.P.CROSS RD.,77E-C.R.P.CROSS RD.,77E-H.V.F.MAIN GATE
77E,13,C.R.P.CROSS RD.,VENGAL CROSS ROAD,77E-VENGAL CROSS ROAD,77E-C.R.P.CROSS RD.
77E,14,VENGAL CROSS ROAD,VEERAPURAM,77E-VEERAPURAM,77E-VENGAL CROSS ROAD
77E,15,VEERAPURAM,KANNIAMMAN NAGAR,77E-KANNIAMMAN NAGAR,77E-VEERAPURAM
77E,16,KANNIAMMAN NAGAR,77E,77E,77E-KANNIAMMAN NAGAR
77K,1,M.G.R.KOYAMBEDU,KOYAMBEDU SCHOOL,77K-KOYAMBEDU SCHOOL,77K-M.G.R.KOYAMBEDU
77K,2,KOYAMBEDU SCHOOL,THIRUMANGALAM,77K-THIRUMANGALAM,77K-KOYAMBEDU SCHOOL
77K,3,THIRUMANGALAM,GOLDEN FLAT,77K-GOLDEN FLAT,77K-THIRUMANGALAM
77K,4,GOLDEN FLAT,AMBATTUR I.E.,77K-AMBATTUR I.E.,77K-GOLDEN FLAT
77K,5,AMBATTUR I.E.,DUNLOP,DUNLOP,77K-AMBATTUR I.E.
77K,6,DUNLOP,AMBATTUR O.T.,77K-AMBATTUR O.T.,DUNLOP
77K,7,AMBATTUR O.T.,VENGATAPURAM,77K-VENGATAPURAM,77K-AMBATTUR O.T.
77K,8,VENGATAPURAM,KARUKKU,77K-KARUKKU,77K-VENGATAPURAM
77K,9,KARUKKU,77K,77K,77K-KARUKKU
77M,1,MADANAKUPPAM,KALLIKUPPAM,77M-KALLIKUPPAM,77M-MADANAKUPPAM
77M,2,KALLIKUPPAM,PUDUR,77M-PUDUR,77M-KALLIKUPPAM
77M,3,PUDUR,AMBATTUR O.T.,77M-AMBATTUR O.T.,77M-PUDUR
77M,4,AMBATTUR O.T.,DUNLOP,DUNLOP,77M-AMBATTUR O.T.
77M,5,DUNLOP,AMBATTUR I.E.,77M-AMBATTUR I.E.,DUNLOP
77M,6,AMBATTUR I.E.,GOLDEN FLAT,77M-GOLDEN FLAT,77M-AMBATTUR I.E.
77M,7,GOLDEN FLAT,THIRUMANGALAM,77M-THIRUMANGALAM,77M-GOLDEN FLAT
77M,8,THIRUMANGALAM,KOYAMBEDU SCHOOL,77M-KOYAMBEDU SCHOOL,77M-THIRUMANGALAM
77M,9,KOYAMBEDU SCHOOL,KOYAMBEDU P.S,77M-KOYAMBEDU P.S,77M-KOYAMBEDU SCHOOL
77M,10,KOYAMBEDU P.S,KOYAMBEDU MARKET,77M-KOYAMBEDU MARKET,77M-KOYAMBEDU P.S
77M,11,KOYAMBEDU MARKET,77M,77M,77M-KOYAMBEDU MARKET
77P,1,M.G.R.KOYAMBEDU,KOYAMBEDU SCHOOL,77P-KOYAMBEDU SCHOOL,77P-M.G.R.KOYAMBEDU
77P,2,KOYAMBEDU SCHOOL,THIRUMANGALAM,77P-THIRUMANGALAM,77P-KOYAMBEDU SCHOOL
77P,3,THIRUMANGALAM,MOGAIPAIR ROAD JN.,77P-MOGAIPAIR ROAD JN.,77P-THIRUMANGALAM
77P,4,MOGAIPAIR ROAD JN.,AMBATTUR I.E.,77P-AMBATTUR I.E.,77P-MOGAIPAIR ROAD JN.
77P,5,AMBATTUR I.E.,DUNLOP,DUNLOP,77P-AMBATTUR I.E.
77P,6,DUNLOP,AMBATTUR O.T.,77P-AMBATTUR O.T.,DUNLOP
77P,7,AMBATTUR O.T.,THIRUMULLAIVOYAL,77P-THIRUMULLAIVOYAL,77P-AMBATTUR O.T.
77P,8,THIRUMULLAIVOYAL,POLYTECHNIC,77P-POLYTECHNIC,77P-THIRUMULLAIVOYAL
77P,9,POLYTECHNIC,AVADI CIRCLE,77P-AVADI CIRCLE,77P-POLYTECHNIC
77P,10,AVADI CIRCLE,KOILPATHAGAI RD.JN.,77P-KOILPATHAGAI RD.JN.,77P-AVADI CIRCLE
77P,11,KOILPATHAGAI RD.JN.,H.V.F.MAIN GATE,77P-H.V.F.MAIN GATE,77P-KOILPATHAGAI RD.JN.
77P,12,H.V.F.MAIN GATE,AAFS CROSS ROAD,77P-AAFS CROSS ROAD,77P-H.V.F.MAIN GATE
77P,13,AAFS CROSS ROAD,VENGAL CROSS ROAD,77P-VENGAL CROSS ROAD,77P-AAFS CROSS ROAD
77P,14,VENGAL CROSS ROAD,VEERAPURAM RD JN.,77P-VEERAPURAM RD JN.,77P-VENGAL CROSS ROAD
77P,15,VEERAPURAM RD JN.,BANGARUPET,77P-BANGARUPET,77P-VEERAPURAM RD JN.
77P,16,BANGARUPET,POOCHIATHIPEDU,77P-POOCHIATHIPEDU,77P-BANGARUPET
77P,17,POOCHIATHIPEDU,77P,77P,77P-POOCHIATHIPEDU
77T,1,THIRUMULLAIVOYAL COLONY,RATION SHOP,77T-RATION SHOP,77T-THIRUMULLAIVOYAL COLONY
77T,2,RATION SHOP,AMBATTUR O.T.,77T-AMBATTUR O.T.,77T-RATION SHOP
77T,3,AMBATTUR O.T.,DUNLOP,DUNLOP,77T-AMBATTUR O.T.
77T,4,DUNLOP,AMBATTUR I.E.,77T-AMBATTUR I.E.,DUNLOP
77T,5,AMBATTUR I.E.,GOLDEN FLATS,77T-GOLDEN FLATS,77T-AMBATTUR I.E.
77T,6,GOLDEN FLATS,THIRUMANGALAM,77T-THIRUMANGALAM,77T-GOLDEN FLATS
77T,7,THIRUMANGALAM,KOYAMBEDU SCHOOL,77T-KOYAMBEDU SCHOOL,77T-THIRUMANGALAM
77T,8,KOYAMBEDU SCHOOL,M.G.R.KOYAMBEDU,77T-M.G.R.KOYAMBEDU,77T-KOYAMBEDU SCHOOL
77T,9,M.G.R.KOYAMBEDU,77T,77T,77T-M.G.R.KOYAMBEDU
77V,1,M.G.R.KOYAMBEDU,KOYAMBEDU SCHOOL,77V-KOYAMBEDU SCHOOL,77V-M.G.R.KOYAMBEDU
77V,2,KOYAMBEDU SCHOOL,THIRUMANGALAM,77V-THIRUMANGALAM,77V-KOYAMBEDU SCHOOL
77V,3,THIRUMANGALAM,GOLDEN FLAT,77V-GOLDEN FLAT,77V-THIRUMANGALAM
77V,4,GOLDEN FLAT,AMBATTUR I.E.,77V-AMBATTUR I.E.,77V-GOLDEN FLAT
77V,5,AMBATTUR I.E.,DUNLOP,DUNLOP,77V-AMBATTUR I.E.
77V,6,DUNLOP,AMBATTUR O.T.,77V-AMBATTUR O.T.,DUNLOP
77V,7,AMBATTUR O.T.,THIRUMULLAIVOYAL,77V-THIRUMULLAIVOYAL,77V-AMBATTUR O.T.
77V,8,THIRUMULLAIVOYAL,POLYTECHNIC,77V-POLYTECHNIC,77V-THIRUMULLAIVOYAL
77V,9,POLYTECHNIC,AVADI,77V-AVADI,77V-POLYTECHNIC
77V,10,AVADI,KAVARAIPALAYAM,77V-KAVARAIPALAYAM,77V-AVADI
77V,11,KAVARAIPALAYAM,PATTABIRAM,77V-PATTABIRAM,77V-KAVARAIPALAYAM
77V,12,PATTABIRAM,NEMILICHERI,77V-NEMILICHERI,77V-PATTABIRAM
77V,13,NEMILICHERI,THIRUNINDRAVOOR,77V-THIRUNINDRAVOOR,77V-NEMILICHERI
77V,14,THIRUNINDRAVOOR,VEPPUMPATTU PULIYAMARAM,77V-VEPPUMPATTU PULIYAMARAM,77V-THIRUNINDRAVOOR
77V,15,VEPPUMPATTU PULIYAMARAM,VEPPAMPATTU E.WARAN NAGAR,77V-VEPPAMPATTU E.WARAN NAGAR,77V-VEPPUMPATTU PULIYAMARAM
77V,16,VEPPAMPATTU E.WARAN NAGAR,77V,77V,77V-VEPPAMPATTU E.WARAN NAGAR
77VET,1,M.G.R.KOYAMBEDU,KOYAMBEDU SCHOOL,77VET-KOYAMBEDU SCHOOL,77VET-M.G.R.KOYAMBEDU
77VET,2,KOYAMBEDU SCHOOL,THIRUMANGALAM,77VET-THIRUMANGALAM,77VET-KOYAMBEDU SCHOOL
77VET,3,THIRUMANGALAM,GOLDEN FLAT,77VET-GOLDEN FLAT,77VET-THIRUMANGALAM
77VET,4,GOLDEN FLAT,AMBATTUR I.E.,77VET-AMBATTUR I.E.,77VET-GOLDEN FLAT
77VET,5,AMBATTUR I.E.,DUNLOP,DUNLOP,77VET-AMBATTUR I.E.
77VET,6,DUNLOP,AMBATTUR O.T.,77VET-AMBATTUR O.T.,DUNLOP
77VET,7,AMBATTUR O.T.,THIRUMULLAIVOYAL,77VET-THIRUMULLAIVOYAL,77VET-AMBATTUR O.T.
77VET,8,THIRUMULLAIVOYAL,POLYTECHNIC,77VET-POLYTECHNIC,77VET-THIRUMULLAIVOYAL
77VET,9,POLYTECHNIC,AVADI,77VET-AVADI,77VET-POLYTECHNIC
77VET,10,AVADI,KAVARAIPALAYAM,77VET-KAVARAIPALAYAM,77VET-AVADI
77VET,11,KAVARAIPALAYAM,PATTABIRAM,77VET-PATTABIRAM,77VET-KAVARAIPALAYAM
77VET,12,PATTABIRAM,NEMILICHERI,77VET-NEMILICHERI,77VET-PATTABIRAM
77VET,13,NEMILICHERI,THIRUNINDRAVOOR,77VET-THIRUNINDRAVOOR,77VET-NEMILICHERI
77VET,14,THIRUNINDRAVOOR,VEPPUMPATTU PULIYAMARAM,77VET-VEPPUMPATTU PULIYAMARAM,77VET-THIRUNINDRAVOOR
77VET,15,VEPPUMPATTU PULIYAMARAM,VEPPAMPATTU E.WARAN NAGAR,77VET-VEPPAMPATTU E.WARAN NAGAR,77VET-VEPPUMPATTU PULIYAMARAM
77VET,16,VEPPAMPATTU E.WARAN NAGAR,AYATHUR CHATHIRAM,77VET-AYATHUR CHATHIRAM,77VET-VEPPAMPATTU E.WARAN NAGAR
77VET,17,AYATHUR CHATHIRAM,THOTTIKALAI JN.,77VET-THOTTIKALAI JN.,77VET-AYATHUR CHATHIRAM
77VET,18,THOTTIKALAI JN.,VELLAI KULAM AMBEDKAR STATUJN,77VET-VELLAI KULAM AMBEDKAR STATUJN,77VET-THOTTIKALAI JN.
77VET,19,VELLAI KULAM AMBEDKAR STATUJN,MUTHUMARIAMMAN KOIL,77VET-MUTHUMARIAMMAN KOIL,77VET-VELLAI KULAM AMBEDKAR STATUJN
77VET,20,MUTHUMARIAMMAN KOIL,AYALOOR,77VET-AYALOOR,77VET-MUTHUMARIAMMAN KOIL
77VET,21,AYALOOR,KOYAMBAKKAM,77VET-KOYAMBAKKAM,77VET-AYALOOR
77VET,22,KOYAMBAKKAM,77VET,77VET,77VET-KOYAMBAKKAM
A47,1,THIRUVANMIYUR,ADYAR DEPOT,A47-ADYAR DEPOT,A47-THIRUVANMIYUR
A47,2,ADYAR DEPOT,ADYAR B.S.,A47-ADYAR B.S.,A47-ADYAR DEPOT
A47,3,ADYAR B.S.,ENG.COLLEGE,A47-ENG.COLLEGE,A47-ADYAR B.S.
A47,4,ENG.COLLEGE,CONCORDE,A47-CONCORDE,A47-ENG.COLLEGE
A47,5,CONCORDE,SAIDAPET,A47-SAIDAPET,A47-CONCORDE
A47,6,SAIDAPET,THIAGARAYA NAGAR,A47-THIAGARAYA NAGAR,A47-SAIDAPET
A47,7,THIAGARAYA NAGAR,VIVEK & CO (KRISHNAN KOIL),A47-VIVEK & CO (KRISHNAN KOIL),A47-THIAGARAYA NAGAR
A47,8,VIVEK & CO (KRISHNAN KOIL),VIDYODAYA,A47-VIDYODAYA,A47-VIVEK & CO (KRISHNAN KOIL)
A47,9,VIDYODAYA,PUSHPA NAGAR,A47-PUSHPA NAGAR,A47-VIDYODAYA
A47,10,PUSHPA NAGAR,NUNGAMBAKKAM R.S.,A47-NUNGAMBAKKAM R.S.,A47-PUSHPA NAGAR
A47,11,NUNGAMBAKKAM R.S.,HOTEL ARUN,A47-HOTEL ARUN,A47-NUNGAMBAKKAM R.S.
A47,12,HOTEL ARUN,ANNA NAGAR CIRCLE,A47-ANNA NAGAR CIRCLE,A47-HOTEL ARUN
A47,13,ANNA NAGAR CIRCLE,THIRUMANGALAM,A47-THIRUMANGALAM,A47-ANNA NAGAR CIRCLE
A47,14,THIRUMANGALAM,LUCAS TVS,A47-LUCAS TVS,A47-THIRUMANGALAM
A47,15,LUCAS TVS,AMBATTUR I.E.,A47-AMBATTUR I.E.,A47-LUCAS TVS
A47,16,AMBATTUR I.E.,DUNLOP,DUNLOP,A47-AMBATTUR I.E.
A47,17,DUNLOP,AMBATTUR O.T.,A47-AMBATTUR O.T.,DUNLOP
A47,18,AMBATTUR O.T.,THIRUMULLAIVOYAL,A47-THIRUMULLAIVOYAL,A47-AMBATTUR O.T.
A47,19,THIRUMULLAIVOYAL,POLYTECHNIC,A47-POLYTECHNIC,A47-THIRUMULLAIVOYAL
A47,20,POLYTECHNIC,AVADI,A47-AVADI,A47-POLYTECHNIC
A47,21,AVADI,A47,A47,A47-AVADI
B70CT,1,GUINDY TVK ESTATE,CIPET,B70CT-CIPET,B70CT-GUINDY TVK ESTATE
B70CT,2,CIPET,JAFFARKHAN PET,B70CT-JAFFARKHAN PET,B70CT-CIPET
B70CT,3,JAFFARKHAN PET,JN OF III AND 1ST AVE,B70CT-JN OF III AND 1ST AVE,B70CT-JAFFARKHAN PET
B70CT,4,JN OF III AND 1ST AVE,M.M.D.A.COLONY RD.JN.,B70CT-M.M.D.A.COLONY RD.JN.,B70CT-JN OF III AND 1ST AVE
B70CT,5,M.M.D.A.COLONY RD.JN.,KOYAMBEDU SCHOOL,B70CT-KOYAMBEDU SCHOOL,B70CT-M.M.D.A.COLONY RD.JN.
B70CT,6,KOYAMBEDU SCHOOL,THIRUMANGALAM,B70CT-THIRUMANGALAM,B70CT-KOYAMBEDU SCHOOL
B70CT,7,THIRUMANGALAM,LUCAS TVS,B70CT-LUCAS TVS,B70CT-THIRUMANGALAM
B70CT,8,LUCAS TVS,AMBATTUR I.E.,B70CT-AMBATTUR I.E.,B70CT-LUCAS TVS
B70CT,9,AMBATTUR I.E.,DUNLOP,DUNLOP,B70CT-AMBATTUR I.E.
B70CT,10,DUNLOP,AMBATTUR O.T.,B70CT-AMBATTUR O.T.,DUNLOP
B70CT,11,AMBATTUR O.T.,RATION SHOP,B70CT-RATION SHOP,B70CT-AMBATTUR O.T.
B70CT,12,RATION SHOP,DEVIK ESWARI NAGAR,B70CT-DEVIK ESWARI NAGAR,B70CT-RATION SHOP
B70CT,13,DEVIK ESWARI NAGAR,B70CT,B70CT,B70CT-DEVIK ESWARI NAGAR
F70,1,PATTABIRAM,KAVARAIPALAYAM,F70-KAVARAIPALAYAM,F70-PATTABIRAM
F70,2,KAVARAIPALAYAM,AVADI,F70-AVADI,F70-KAVARAIPALAYAM
F70,3,AVADI,POLYTECHNIC,F70-POLYTECHNIC,F70-AVADI
F70,4,POLYTECHNIC,THIRUMULLAIVOYAL,F70-THIRUMULLAIVOYAL,F70-POLYTECHNIC
F70,5,THIRUMULLAIVOYAL,AMBATTUR O.T.,F70-AMBATTUR O.T.,F70-THIRUMULLAIVOYAL
F70,6,AMBATTUR O.T.,DUNLOP,DUNLOP,F70-AMBATTUR O.T.
F70,7,DUNLOP,AMBATTUR I.E.,F70-AMBATTUR I.E.,DUNLOP
F70,8,AMBATTUR I.E.,LUCAS TVS,F70-LUCAS TVS,F70-AMBATTUR I.E.
F70,9,LUCAS TVS,THIRUMANGALAM,F70-THIRUMANGALAM,F70-LUCAS TVS
F70,10,THIRUMANGALAM,KOYAMBEDU SCHOOL,F70-KOYAMBEDU SCHOOL,F70-THIRUMANGALAM
F70,11,KOYAMBEDU SCHOOL,M.M.D.A.COLONY RD.JN.,F70-M.M.D.A.COLONY RD.JN.,F70-KOYAMBEDU SCHOOL
F70,12,M.M.D.A.COLONY RD.JN.,JN OF III AND 1ST AVE,F70-JN OF III AND 1ST AVE,F70-M.M.D.A.COLONY RD.JN.
F70,13,JN OF III AND 1ST AVE,JAFFARKHAN PET,F70-JAFFARKHAN PET,F70-JN OF III AND 1ST AVE
F70,14,JAFFARKHAN PET,KADUMBADIAMMAN KOIL,F70-KADUMBADIAMMAN KOIL,F70-JAFFARKHAN PET
F70,15,KADUMBADIAMMAN KOIL,GUINDY TVK ESTATE,F70-GUINDY TVK ESTATE,F70-KADUMBADIAMMAN KOIL
F70,16,GUINDY TVK ESTATE,F70,F70,F70-GUINDY TVK ESTATE
S58,1,AMBATTUR I.E.,DUNLOP,DUNLOP,S58-AMBATTUR I.E.
S58,2,DUNLOP,AMBATTUR O.T.,S58-AMBATTUR O.T.,DUNLOP
S58,3,AMBATTUR O.T.,RATION SHOP,S58-RATION SHOP,S58-AMBATTUR O.T.
S58,4,RATION SHOP,THIRUMULLAIVOYAL COLONY,S58-THIRUMULLAIVOYAL COLONY,S58-RATION SHOP
S58,5,THIRUMULLAIVOYAL COLONY,S58,S58,S58-THIRUMULLAIVOYAL COLONY
